Id,source,latitude,longitude,region,country,admin1,localityName,localityQuality,observationDate,reportingDate,status,disease,serotypes,speciesDescription,sumAtRisk,sumCases,sumDeaths,sumDestroyed,sumSlaughtered,humansGenderDesc,humansAge,humansAffected,humansDeaths
229252,OIE,23.710572,120.249017,Asia,Taiwan (Province Of China),Taiwan Sheng, Dongshi Township ,Exact,6/7/2017,11/7/2017,Confirmed,Influenza - Avian,H5N2 HPAI,"domestic, chicken",20500,365,365,17435,,,0,,
226997,National authorities,29.266667,120.216667,Asia,China,Zhejiang Sheng, Dongyang City Of Jinhua City,Unknown,,31/12/2016,Confirmed,Influenza - Avian,H7N9 LPAI,"environmental sample, unspecified bird",,31,,,,,,,
221119,OIE,44.449722,84.985833,Asia,China,Xinjiang Uygur Zizhiqu, Ili Kazak Autonomous Prefecture,Exact,17/12/2016,28/12/2016,Confirmed,Influenza - Avian,H5N6 HPAI,"domestic, unspecified bird",66619,16000,10716,55903,0,,0,,
219103,OIE,47.65,9.17,Europe,Switzerland,Thurgau, Kreuzlingen,Unknown,7/11/2016,16/11/2016,Confirmed,Influenza - Avian,H5N8 HPAI,"wild, unspecified bird",,1,1,0,0,,0,,
218538,OIE,9.25,76.5,Asia,India,Kerala, Ramankary ,Unknown,23/10/2016,26/10/2016,Confirmed,Influenza - Avian,H5N8 HPAI,"wild, unspecified bird",77848,15,15,6483,,,0,,
224050,OIE,41.9738359,2.724,Europe,Spain,Catalua±A/Catalunya, Sant Gregori,Exact,18/02/2017,23/02/2017,Confirmed,Influenza - Avian,H5N8 HPAI,"domestic, duck",17800,723,723,17077,0,,0,,
218742,National authorities,53.67,13.67,Europe,Germany,Mecklenburg-Vorpommern, Schweriner Sees,Unknown,,11/11/2016,Confirmed,Influenza - Avian,H5N8 HPAI,"wild, heron",,,,,,,0,,
208823,FAO officer,-6.8171,108.288,Asia,Indonesia,Jawa Barat, Sukahaji,Exact,9/9/2015,9/9/2015,Confirmed,Influenza - Avian,H5N1 HPAI,"domestic, chicken",,,55,,,,,,
227791,OIE,56.572361,47.91521,Europe,Russian Federation,Mariy-El Rep., Suslonger ,Centroid Admin1,11/5/2017,17/05/2017,Confirmed,Influenza - Avian,H5N8 HPAI,"domestic, unspecified bird",40,40,40,,,,0,,
229243,OIE,50.464817,4.517263,Europe,Belgium,Region Wallonne, Wangenies ,Unknown,29/06/2017,12/7/2017,Confirmed,Influenza - Avian,H5N8 HPAI,"domestic, unspecified bird",78,12,12,66,,,0,,
229250,OIE,25.030189,121.489521,Asia,Taiwan (Province Of China),Taiwan Sheng, Wanhua District,Exact,1/7/2017,11/7/2017,Confirmed,Influenza - Avian,H5N2 HPAI,"domestic, chicken",42,,0,42,,,0,,
229248,OIE,22.743333,120.542389,Asia,Taiwan (Province Of China),Taiwan Sheng, Yanpu Township ,Exact,29/06/2017,11/7/2017,Confirmed,Influenza - Avian,"H5N8 HPAI, H5N2 HPAI","domestic, duck",2732,,0,2732,,,0,0,0
221893,National authorities,47.843767,40.050887,Europe,Russian Federation,Rostovskaya Oblast," Yevrodon 10, Krasnosulinsky ",Exact,27/12/2016,30/12/2016,Confirmed,Influenza - Avian,H5 HPAI,"domestic, turkey",161368,755,755,160613,,,0,,
208998,OIE,22.6759,120.55536,Asia,Taiwan (Province Of China),Taiwan Sheng,"	Changzhi Township",Exact,23/11/2015,8/12/2015,Confirmed,Influenza - Avian,H5N2 HPAI,"domestic, chicken",21000,10440,10440,10560,0,,,,
224420,OIE,43.7961,28.5889,Europe,Romania,Constanta,2 Mai,Exact,20/02/2017,28/02/2017,Confirmed,Influenza - Avian,H5N8 HPAI,"wild, whooper swan",,3,3,0,0,,,,
227674,National authorities,55.50256,49.58835,Europe,Russian Federation,Tatarstan Rep.,"25 October Village, Laishevsky District",Unknown,3/5/2017,10/5/2017,Confirmed,Influenza - Avian,H5N8 HPAI,"domestic, unspecified bird",447800,15000,5202,,,,0,,
209416,OIE,5.59011,-0.18666,Africa,Ghana,Greater Accra,37 Military Hospital Residence,Exact,30/11/2015,25/12/2015,Confirmed,Influenza - Avian,H5N1 HPAI,"domestic, chicken",40,7,7,33,0,,,,
209415,OIE,5.59011,-0.18666,Africa,Ghana,Greater Accra,37 Military Hospital Residence,Exact,30/11/2015,25/12/2015,Confirmed,Influenza - Avian,H5N1 HPAI,"domestic, chicken",40,7,7,33,0,,,,
209496,OIE,22.339444,114.204246,Asia,"Hong Kong, Sar",Administrative Unit Not Available,60 Fung Tak Road,Exact,31/12/2015,5/1/2016,Confirmed,Influenza - Avian,H5N6 HPAI,"wild, great egret",,1,1,0,0,,,,
220149,OIE,56.5,10.8,Europe,Denmark,Aarhus,Aarhus,Centroid Locality,17/11/2016,6/12/2016,Confirmed,Influenza - Avian,H5N8 HPAI,"wild,great black-backed gull (larus marinus))",,1,1,0,0,,0,,
209823,OIE,6.2545,7.9745,Africa,Nigeria,Ebonyi,Abakaliki,Exact,12/1/2016,19/01/2016,Confirmed,Influenza - Avian,H5N1 HPAI,"domestic, chicken",250,75,75,175,0,,,,
209208,National authorities,25.85316,32.794489,Africa,Egypt,Qena,Abasa,Centroid Admin2,3/12/2015,5/12/2015,Confirmed,Influenza - Avian,H5N1 HPAI,"domestic, duck",,10,,10,,,,,
225292,National authorities,25.85316,32.794489,Africa,Egypt,Qena,Abasa,Centroid Admin2,16/03/2017,17/03/2017,Confirmed,Influenza - Avian,H5N1 HPAI,"domestic, duck",,2000,,2000,,,,,
227141,National authorities,31.9,102.222,Asia,China,Sichuan Sheng,Abba,Exact,15/04/2017,28/04/2017,Confirmed,Influenza - Avian,H7N9 LPAI,,,,,,,,,1,
227628,National authorities,31.9,102.222,Asia,China,Sichuan Sheng,Abba,Unknown,26/04/2017,5/5/2017,Confirmed,Influenza - Avian,H7N9 LPAI,,,,,,,,,1,
227624,National authorities,31.9,102.222,Asia,China,Sichuan Sheng,Abba,Unknown,23/04/2017,5/5/2017,Confirmed,Influenza - Avian,H7N9 LPAI,,,,,,,,,1,1
227625,National authorities,31.9,102.222,Asia,China,Sichuan Sheng,Abba,Unknown,20/04/2017,5/5/2017,Confirmed,Influenza - Avian,H7N9 LPAI,,,,,,,,,1,1
220770,OIE,53.0219,5.5675,Europe,Netherlands,Friesland,Abbega,Exact,12/12/2016,14/12/2016,Confirmed,Influenza - Avian,H5N8 HPAI,"domestic, chicken",59439,500,500,58939,0,,,,
221690,OIE,50.653223,-2.601845,Europe,U.K. Of Great Britain And Northern Ireland,England,Abbotsbury,Unknown,26/12/2016,9/1/2017,Confirmed,Influenza - Avian,H5N8 HPAI,"wild, swan",,9,9,0,0,,,,
207614,OIE,5.4831,7.4586,Africa,Nigeria,Abia,Abia,Exact,21/09/2015,28/09/2015,Confirmed,Influenza - Avian,H5N1 HPAI,"domestic, chicken",3300,495,495,2805,0,,,,
217434,OIE,5.1432,6.4051,Africa,Nigeria,Bayelsa,Abiokpor,Exact,30/08/2016,4/10/2016,Confirmed,Influenza - Avian,H5N1 HPAI,"domestic, unspecified bird",2000,1300,1300,700,0,,0,,
217624,OIE,5.63752,-0.32639,Africa,Ghana,Greater Accra,Ablekuma,Unknown,11/9/2016,8/10/2016,Confirmed,Influenza - Avian,H5N1 HPAI,"domestic, unspecified bird",571,419,419,152,0,,,,
206609,OIE,5.63752,-0.32639,Africa,Ghana,Greater Accra,Ablekuma,Centroid Admin2,31/07/2015,14/08/2015,Confirmed,Influenza - Avian,H5N1 HPAI,"domestic, unspecified bird, domestic, chicken, domestic, duck",706,512,194,512,0,,,,
211860,FAO Field Officer,5.63752,-0.32639,Africa,Ghana,Greater Accra,Ablekuma,Centroid Admin2,15/04/2016,19/04/2016,Confirmed,Influenza - Avian,H5N1 HPAI,"domestic, chicken",1746,393,393,1353,0,,,,
214916,OIE,5.424809,-4.018842,Africa,Ca´Te D'Ivoire,District Autonome De Abidjan,Abobo Main Market,Exact,12/3/2016,27/07/2016,Confirmed,Influenza - Avian,H5N1 HPAI,"domestic, chicken",200,1,0,1,0,,,,
230177,National authorities,30.42615,32.18335,Africa,Egypt,Ismailia,Aboswear,Centroid Admin2,18/06/2017,18/06/2017,Confirmed,Influenza - Avian,H5N1 HPAI,"domestic, duck",,23,,23,,,,,
228432,National authorities,30.42615,32.18335,Africa,Egypt,Ismailia,Aboswear,Centroid Admin2,4/6/2017,5/6/2017,Confirmed,Influenza - Avian,H5N1 HPAI,"domestic, chicken",,30,,30,,,,,
228420,National authorities,30.42615,32.18335,Africa,Egypt,Ismailia,Aboswear,Centroid Admin2,21/05/2017,22/05/2017,Confirmed,Influenza - Avian,H5N1 HPAI,"domestic, duck",,10,,10,,,,,
210024,National authorities,26.122962,32.089848,Africa,Egypt,Qena,Abotesht,Centroid Admin2,21/01/2016,21/01/2016,Confirmed,Influenza - Avian,H5N1 HPAI,"domestic, chicken",,10,,10,,,,,
227816,OIE,54.5694,53.4194,Europe,Russian Federation,Tatarstan Rep.,Absalyamovo,Exact,9/5/2017,17/05/2017,Confirmed,Influenza - Avian,H5N8 HPAI,"domestic, unspecified bird",350,350,330,20,0,,,,
226046,National authorities,30.7732,31.11884,Africa,Egypt,Gharbia,Abu Alaam,Centroid Admin2,21/03/2017,23/03/2017,Confirmed,Influenza - Avian,H5N1 HPAI,"domestic, chicken",,55,,55,,,,,
222419,National authorities,30.42053,31.93247,Africa,Egypt,Ismailia,Abu Ashour,Centroid Locality,18/01/2017,20/01/2017,Confirmed,Influenza - Avian,H5N1 HPAI,"domestic, duck",,65,,65,,,,,
217333,National authorities,23.769381,53.710534,Asia,United Arab Emirates,Abu Dhabi,Abu Dhabi,Centroid Admin1,,4/10/2016,Confirmed,Influenza - Avian,H9N2 LPAI,"domestic, quail",7,,,,,,0,,
225275,National authorities,30.73152,31.5642,Africa,Egypt,Shrkia,Abu Gabr,Centroid Admin2,1/3/2017,3/3/2017,Confirmed,Influenza - Avian,H5N1 HPAI,"domestic, chicken",,15,,15,,,,,
209713,National authorities,26.122962,32.089848,Africa,Egypt,Qena,Abu Shosha,Centroid Admin2,8/1/2016,9/1/2016,Confirmed,Influenza - Avian,H5N1 HPAI,"domestic, chicken",,10,,10,,,,,
218719,National authorities,30.523211,32.195204,Africa,Egypt,Ismailia,Abuatwa,Centroid Admin2,26/10/2016,28/10/2016,Confirmed,Influenza - Avian,H5N1 HPAI,"domestic, chicken",,30,,30,,,,,
209853,National authorities,25.58333,32.5,Africa,Egypt,Luxor,Abudaker,Centroid Admin2,18/01/2016,20/01/2016,Confirmed,Influenza - Avian,H5N1 HPAI,"domestic, chicken",,3500,,3500,,,,,
226708,National authorities,30.80633,30.83341,Africa,Egypt,Gharbia,Abuelgr,Centroid Admin2,3/4/2017,4/4/2017,Confirmed,Influenza - Avian,H5N1 HPAI,"domestic, duck",,5010,,5010,,,,,
227392,National authorities,30.36515,32.32138,Africa,Egypt,Ismailia,Abufadel,Centroid Admin2,2/5/2017,3/5/2017,Confirmed,Influenza - Avian,H5N1 HPAI,"domestic, duck",,73,,73,,,,,
207118,FAO Field Officer,8.8024,7.0799,Africa,Nigeria,Abuja,Abuja Municipal,Exact,10/9/2015,11/9/2015,Confirmed,Influenza - Avian,H5N1 HPAI,"domestic, chicken",800,400,400,0,0,,,,
209541,National authorities,26.13884,32.452374,Africa,Egypt,Qena,Abu-Manaaa,Centroid Admin2,4/1/2016,5/1/2016,Confirmed,Influenza - Avian,H5N1 HPAI,"domestic, chicken",,18,,18,,,,,
209525,National authorities,26.122962,32.089848,Africa,Egypt,Qena,Abushosha,Centroid Admin2,25/12/2015,27/12/2015,Confirmed,Influenza - Avian,H5N1 HPAI,"domestic, chicken",,10,,10,,,,,
212494,OIE,6.14182,0.05132,Africa,Ghana,Eastern,Abusia Kope,Exact,3/4/2016,22/04/2016,Confirmed,Influenza - Avian,H5N1 HPAI,"domestic, chicken",3940,2210,2210,1730,0,,,,
226723,National authorities,30.42615,32.18335,Africa,Egypt,Ismailia,Abusier,Centroid Admin2,9/4/2017,11/4/2017,Confirmed,Influenza - Avian,H5N1 HPAI,"domestic, duck",,10,,10,,,,,
227382,National authorities,30.42615,32.18335,Africa,Egypt,Ismailia,Abusour,Centroid Admin2,23/04/2017,24/04/2017,Confirmed,Influenza - Avian,H5N1 HPAI,"domestic, duck",,10,,10,,,,,
222407,National authorities,30.50733,31.36908,Africa,Egypt,Shrkia,Abutaula,Centroid Locality,5/1/2017,7/1/2017,Confirmed,Influenza - Avian,H5N1 HPAI,"domestic, chicken",,40,,40,,,,,
211872,OIE,20.783257,-102.911966,Americas,Mexico,Jalisco,Acatic,Exact,12/4/2016,22/04/2016,Confirmed,Influenza - Avian,H7N3 HPAI,"domestic, chicken",161000,1,0,0,0,,,,
211768,OIE,20.783257,-102.911966,Americas,Mexico,Jalisco,Acatic,Exact,3/3/2016,8/4/2016,Confirmed,Influenza - Avian,H7N3 HPAI,"domestic, unspecified bird",210516,0,0,0,0,,,,
213854,OIE,5.5772,-0.2413,Africa,Ghana,Greater Accra,Accra Academy Secondary School,Exact,11/6/2016,28/06/2016,Confirmed,Influenza - Avian,H5N1 HPAI,"domestic, chicken",900,812,812,88,0,,,,
211777,OIE,18.715895,-97.306,Americas,Mexico,Puebla,Acultzingo,Exact,23/03/2016,8/4/2016,Confirmed,Influenza - Avian,H7N3 HPAI,"domestic, unspecified bird",28900,8000,3000,0,0,,,,
211776,OIE,18.715895,-97.306,Americas,Mexico,Puebla,Acultzingo,Exact,23/03/2016,8/4/2016,Confirmed,Influenza - Avian,H7N3 HPAI,"domestic, unspecified bird",17200,5000,1000,0,0,,,,
211775,OIE,18.715895,-97.306,Americas,Mexico,Puebla,Acultzingo,Exact,23/03/2016,8/4/2016,Confirmed,Influenza - Avian,H7N3 HPAI,"domestic, unspecified bird",16000,8000,3000,0,0,,,,
226522,OIE,35.77481,139.804318,Asia,Japan,Tookyoo,Adachi-Ku,Exact,3/2/2017,18/04/2017,Confirmed,Influenza - Avian,H5N6 HPAI,"wild, unspecified bird",,1,1,0,0,,,,
215810,OIE,6.17555,1.19194,Africa,Togo,Maritime,Adidogome,Exact,19/08/2016,24/08/2016,Confirmed,Influenza - Avian,H5N1 HPAI,"domestic, unspecified bird",980,950,950,30,0,,,,
228334,OIE,33.468164,126.411802,Asia,Republic Of Korea,Cheju-Do,Aewol-Eup,Exact,2/6/2017,6/6/2017,Confirmed,Influenza - Avian,H5N8 HPAI,"domestic, unspecified bird",1000,0,0,1000,0,,,,
213352,National authorities,30.894517,31.306644,Africa,Egypt,Dakahlia,Aga,Centroid Admin2,12/6/2016,14/06/2016,Confirmed,Influenza - Avian,H5N1 HPAI,"domestic, duck",,20,,20,,,,,
213339,National authorities,30.894517,31.306644,Africa,Egypt,Dakahlia,Aga,Centroid Admin2,29/05/2016,31/05/2016,Confirmed,Influenza - Avian,H5N1 HPAI,"domestic, chicken",,53,,53,,,,,
226496,OIE,37.834516,139.226004,Asia,Japan,Niigata,Agano-Cho,Exact,12/1/2017,18/04/2017,Confirmed,Influenza - Avian,H5N6 HPAI,"wild, whooper swan",,1,1,0,0,,,,
226436,OIE,37.834516,139.226004,Asia,Japan,Niigata,Agano-Shi,Exact,16/12/2016,18/04/2017,Confirmed,Influenza - Avian,H5N6 HPAI,"wild, anatidae",,1,1,0,0,,,,
226426,OIE,37.834516,139.226004,Asia,Japan,Niigata,Agano-Shi,Exact,14/12/2016,18/04/2017,Confirmed,Influenza - Avian,H5N6 HPAI,"wild, hawk",,1,1,0,0,,,,
226424,OIE,37.834516,139.226004,Asia,Japan,Niigata,Agano-Shi,Exact,13/12/2016,18/04/2017,Confirmed,Influenza - Avian,H5N6 HPAI,"wild, unspecified bird",,1,1,0,0,,,,
226419,OIE,37.834516,139.226004,Asia,Japan,Niigata,Agano-Shi,Exact,12/12/2016,18/04/2017,Confirmed,Influenza - Avian,H5N6 HPAI,"wild, tundra swan",,1,1,0,0,,,,
226410,OIE,37.834516,139.226004,Asia,Japan,Niigata,Agano-Shi,Exact,11/12/2016,18/04/2017,Confirmed,Influenza - Avian,H5N6 HPAI,"wild, tundra swan",,1,1,0,0,,,,
226408,OIE,37.834516,139.226004,Asia,Japan,Niigata,Agano-Shi,Exact,10/12/2016,18/04/2017,Confirmed,Influenza - Avian,H5N6 HPAI,"wild, tundra swan",,1,1,0,0,,,,
226407,OIE,37.834516,139.226004,Asia,Japan,Niigata,Agano-Shi,Exact,10/12/2016,18/04/2017,Confirmed,Influenza - Avian,H5N6 HPAI,"wild, tundra swan",,1,1,0,0,,,,
226404,OIE,37.834516,139.226004,Asia,Japan,Niigata,Agano-Shi,Exact,9/12/2016,18/04/2017,Confirmed,Influenza - Avian,H5N6 HPAI,"wild, tundra swan",,1,1,0,0,,,,
226400,OIE,37.834516,139.226004,Asia,Japan,Niigata,Agano-Shi,Exact,8/12/2016,18/04/2017,Confirmed,Influenza - Avian,H5N6 HPAI,"wild, tundra swan",,1,1,0,0,,,,
226399,OIE,37.834516,139.226004,Asia,Japan,Niigata,Agano-Shi,Exact,6/12/2016,18/04/2017,Confirmed,Influenza - Avian,H5N6 HPAI,"wild, tundra swan",,2,2,0,0,,,,
226394,OIE,37.834516,139.226004,Asia,Japan,Niigata,Agano-Shi,Exact,5/12/2016,18/04/2017,Confirmed,Influenza - Avian,H5N6 HPAI,"wild, tundra swan",,1,1,0,0,,,,
226390,OIE,37.834516,139.226004,Asia,Japan,Niigata,Agano-Shi,Exact,2/12/2016,18/04/2017,Confirmed,Influenza - Avian,H5N6 HPAI,"wild, tundra swan",,1,1,0,0,,,,
226382,OIE,37.834516,139.226004,Asia,Japan,Niigata,Agano-Shi,Exact,27/11/2016,18/04/2017,Confirmed,Influenza - Avian,H5N6 HPAI,"wild, tundra swan",,1,1,0,0,,,,
224283,OIE,46.928946,26.296821,Europe,Romania,Neamt,Agarcia,Exact,17/02/2017,23/02/2017,Confirmed,Influenza - Avian,H5N8 HPAI,"wild, unspecified bird",,1,1,0,0,,,,
224281,OIE,46.928946,26.296821,Europe,Romania,Neamt,Agarcia,Exact,17/02/2017,23/02/2017,Confirmed,Influenza - Avian,H5N8 HPAI,"wild, unspecified bird",,1,1,0,0,,,,
224277,OIE,46.928946,26.296821,Europe,Romania,Neamt,Agarcia,Exact,17/02/2017,23/02/2017,Confirmed,Influenza - Avian,H5N8 HPAI,"wild, unspecified bird",,1,1,0,0,,,,
224025,OIE,46.928946,26.296821,Europe,Romania,Neamt,Agarcia,Unknown,11/2/2017,16/02/2017,Confirmed,Influenza - Avian,H5N8 HPAI,"wild, whooper swan",,1,1,0,0,,,,
209463,OIE,6.254616,6.205236,Africa,Nigeria,Delta,Agbor,Exact,24/12/2015,2/1/2016,Confirmed,Influenza - Avian,H5N1 HPAI,"wild, unspecified bird",,7973,7973,0,0,,,,
222054,OIE,50.4,7.25,Europe,Germany,Rheinland-Pfalz,Ahrweiler,Unknown,22/12/2016,9/1/2017,Confirmed,Influenza - Avian,H5N8 HPAI,"wild, wild duck",,1,1,0,0,,,,
220092,OIE,48.26,10.93,Europe,Germany,Bayern,Aichach-Friedberg,Exact,29/11/2016,2/12/2016,Confirmed,Influenza - Avian,H5N8 HPAI,"wild,mute swan (cygnus olor))",,1,1,0,0,,,,
224114,OIE,43.698611,0.084167,Europe,France,Midi-Pyrenees,Aignan,Unknown,10/2/2017,17/02/2017,Confirmed,Influenza - Avian,H5N8 HPAI,"domestic, duck",8000,0,0,0,0,,,,
221505,FAO Field Officer,-2.0014,105.255,Asia,Indonesia,Bangka Belitung,Air Belo,Exact,20/10/2016,20/10/2016,Confirmed,Influenza - Avian,H5N1 HPAI,"domestic, chicken",,,50,,,,,,
221516,FAO Field Officer,-2.224,105.998,Asia,Indonesia,Bangka Belitung,Air Buluh,Exact,2/11/2016,2/11/2016,Confirmed,Influenza - Avian,H5N1 HPAI,"domestic, chicken",,,465,,,,,,
221502,FAO Field Officer,-2.224,105.998,Asia,Indonesia,Bangka Belitung,Air Buluh,Exact,28/10/2016,28/10/2016,Confirmed,Influenza - Avian,H5N1 HPAI,"domestic, chicken",,,26,,,,,,
217086,National authorities,-2.224,105.998,Asia,Indonesia,Bangka Belitung,Air Itam,Exact,12/8/2016,12/8/2016,Confirmed,Influenza - Avian,H5N1 HPAI,"domestic, duck",,,11,,,,,,
221519,FAO Field Officer,-4.115,104.198,Asia,Indonesia,Sumatera Selatan,Air Paoh,Exact,6/11/2016,6/11/2016,Confirmed,Influenza - Avian,H5N1 HPAI,"domestic, quail",,,200,,,,,,
206620,OIE,6.45583,3.21958,Africa,Nigeria,Lagos,"Aiyedoto, Ojo",Exact,9/8/2015,17/08/2015,Confirmed,Influenza - Avian,H5N1 HPAI,"domestic, chicken",350,58,58,292,0,,,,
206619,OIE,6.45583,3.21958,Africa,Nigeria,Lagos,"Aiyedoto, Ojo",Exact,6/8/2015,17/08/2015,Confirmed,Influenza - Avian,H5N1 HPAI,"domestic, chicken",500,22,22,478,0,,,,
228444,National authorities,25.6825,32.63182,Africa,Egypt,Luxor,Akaltia,Centroid Admin2,23/03/2017,24/03/2017,Confirmed,Influenza - Avian,H5N8 HPAI,"domestic, duck",,9,,9,,,,,
226054,National authorities,25.6825,32.63182,Africa,Egypt,Luxor,Akaltia,Centroid Admin2,23/03/2017,24/03/2017,Confirmed,Influenza - Avian,H5N1 HPAI,"domestic, duck",,9,,9,,,,,
211103,National authorities,26.55,31.7,Africa,Egypt,Suhag,Akhmem District,Unknown,25/02/2016,7/3/2016,Confirmed,Influenza - Avian,H5N1 HPAI,,,,,,,,,1,
219174,National authorities,39.671954,140.076242,Asia,Japan,Akita,Akita,Exact,17/11/2016,17/11/2016,Confirmed,Influenza - Avian,H5N6 HPAI,"wild, black swan",,1,1,,,,0,,
219172,National authorities,39.671954,140.076242,Asia,Japan,Akita,Akita,Unknown,15/11/2016,15/11/2016,Confirmed,Influenza - Avian,H5N6 HPAI,"wild, black swan",,1,1,,,,0,,
226375,OIE,39.671954,140.076242,Asia,Japan,Akita,Akita,Exact,23/11/2016,18/04/2017,Confirmed,Influenza - Avian,H5N6 HPAI,"wild, snowy owl",,2,2,0,0,,,,
226372,OIE,39.671954,140.076242,Asia,Japan,Akita,Akita,Exact,23/11/2016,18/04/2017,Confirmed,Influenza - Avian,H5N6 HPAI,"wild, snowy owl",,1,1,0,0,,,,
226517,OIE,43.051869,144.847374,Asia,Japan,Hokkaidoo,Akkeshi-Cho,Exact,22/01/2017,18/04/2017,Confirmed,Influenza - Avian,H5N6 HPAI,"wild, whooper swan",,1,1,0,0,,,,
226510,OIE,43.051869,144.847374,Asia,Japan,Hokkaidoo,Akkeshi-Cho,Exact,18/01/2017,18/04/2017,Confirmed,Influenza - Avian,H5N6 HPAI,"wild, whooper swan",,1,1,0,0,,,,
226501,OIE,43.051869,144.847374,Asia,Japan,Hokkaidoo,Akkeshi-Cho,Exact,15/01/2017,18/04/2017,Confirmed,Influenza - Avian,H5N6 HPAI,"wild, whooper swan",,1,1,0,0,,,,
206900,FAO Field Officer,5.35639,-3.94472,Africa,Ca´Te D'Ivoire,District Autonome De Abidjan,Akouedo-Extension District,Exact,11/8/2015,1/9/2015,Confirmed,Influenza - Avian,H5N1 HPAI,"domestic, chicken",10,5,5,,0,,,,
207993,OIE,5.6867,-0.5528,Africa,Ghana,Central,Akpeteshie Camp,Exact,12/10/2015,22/10/2015,Confirmed,Influenza - Avian,H5N1 HPAI,"domestic, unspecified bird",510,34,34,476,0,,,,
221892,OIE,43.6513,51.1469,Asia,Kazakhstan,Mangistauskaya,"Aktau City, 14 ",Exact,16/01/2017,6/2/2017,Confirmed,Influenza - Avian,H5N8 HPAI,"wild, swan",,2,2,,,,0,,
224555,OIE,8.9641,8.2782,Africa,Nigeria,Nassarawa,Akwanga,Exact,23/02/2017,3/3/2017,Confirmed,Influenza - Avian,H5N1 HPAI,"domestic, chicken",3200,9,9,3191,0,,,,
207116,National authorities,31.49309,34.45285,Asia,Gaza Strip,Gaza,"Al Sabrah, Al Sabrah",Centroid Admin1,6/8/2015,6/8/2015,Confirmed,Influenza - Avian,H5N1 HPAI,"domestic, duck",50,25,25,40,,,,,
207115,National authorities,31.49309,34.45285,Asia,Gaza Strip,Gaza,"Al Sabrah, Al Sabrah",Centroid Admin1,6/8/2015,6/8/2015,Confirmed,Influenza - Avian,H5N1 HPAI,"domestic, duck",100,18,18,88,,,,,
207114,National authorities,31.49309,34.45285,Asia,Gaza Strip,Gaza,"Al Sabrah, Al Sabrah",Centroid Admin1,6/8/2015,6/8/2015,Confirmed,Influenza - Avian,H5N1 HPAI,"domestic, duck",10,3,3,8,,,,,
207113,National authorities,31.49309,34.45285,Asia,Gaza Strip,Gaza,"Al Sabrah, Al Sabrah",Centroid Admin1,6/8/2015,6/8/2015,Confirmed,Influenza - Avian,H5N1 HPAI,"domestic, duck",140,30,30,125,,,,,
226037,National authorities,30.94747,31.59386,Africa,Egypt,Dakahlia,Alamier,Centroid Admin2,7/2/2017,8/2/2017,Confirmed,Influenza - Avian,H5N8 HPAI,"domestic, chicken, domestic, duck, domestic, unspecified bird",,22,,22,,,,,
214847,OIE,33.6438,44.79765,Asia,Iraq,Diyala,Alazezia,Exact,9/7/2016,25/07/2016,Confirmed,Influenza - Avian,H5N1 HPAI,"domestic, unspecified bird",914000,410,410,913590,0,,,,
214852,OIE,33.6438,44.79765,Asia,Iraq,Diyala,Alazezia,Exact,13/07/2016,25/07/2016,Confirmed,Influenza - Avian,H5N1 HPAI,"domestic, unspecified bird",305000,7660,7660,297340,0,,,,
214851,OIE,33.6438,44.79765,Asia,Iraq,Diyala,Alazezia,Exact,12/7/2016,25/07/2016,Confirmed,Influenza - Avian,H5N1 HPAI,"domestic, unspecified bird",146500,7530,7530,138970,0,,,,
211888,OIE,31.942889,45.636306,Asia,Iraq,Qadissiya,Al-Badiar,Exact,25/01/2016,25/04/2016,Confirmed,Influenza - Avian,H5N1 HPAI,"domestic, unspecified bird",7000,800,800,6200,,,,,
211887,OIE,31.942889,45.636306,Asia,Iraq,Qadissiya,Al-Badiar,Exact,25/01/2016,25/04/2016,Confirmed,Influenza - Avian,H5N1 HPAI,"domestic, unspecified bird",6000,1200,1200,4800,,,,,
230190,OIE,45.296691,11.316301,Europe,Italy,Veneto,Albaredo D'Adige,Exact,23/07/2017,28/07/2017,Confirmed,Influenza - Avian,H5N8 HPAI,"domestic, turkey",17724,3120,1000,16724,,,,,
224065,OIE,48.28,9.81,Europe,Germany,Baden-Wuerttemberg,Alb-Donau-Kreis,Exact,6/2/2017,10/2/2017,Confirmed,Influenza - Avian,H5N8 HPAI,"wild, unspecified bird",,1,1,0,0,,,,
223872,OIE,40.85,25.87,Europe,Greece,Anatoliki Makedonia Kai Thraki,Alexandroupolis,Unknown,1/2/2017,16/02/2017,Confirmed,Influenza - Avian,H5N8 HPAI,"wild,mute swan (cygnus olor))",,1,1,,,,0,,
225278,National authorities,26.24113,31.94478,Africa,Egypt,Suhag,Alghabat,Centroid Admin2,5/3/2017,6/3/2017,Confirmed,Influenza - Avian,H5N1 HPAI,"domestic, chicken",,26,,26,,,,,
220445,OIE,46.3064,20.2678,Europe,Hungary,Csongrad,Algyo,Exact,6/12/2016,13/12/2016,Confirmed,Influenza - Avian,H5N8 HPAI,"domestic, turkey",10000,0,0,0,0,,0,,
228570,OIE,22.87278,120.31427,Asia,Taiwan (Province Of China),Taiwan Sheng,Alian District,Exact,13/06/2017,23/06/2017,Confirmed,Influenza - Avian,H5N2 HPAI,"domestic, chicken",2252,44,44,2208,0,,,,
221592,OIE,56.0459,9.8517,Europe,Denmark,Aarhus,Alken,Unknown,8/12/2016,22/12/2016,Confirmed,Influenza - Avian,H5N8 HPAI,"wild, gull",,1,0,1,0,,,,
216827,National authorities,-3.965929,119.791,Asia,Indonesia,Sulawesi Selatan,Allakukang,Exact,1/3/2016,1/3/2016,Confirmed,Influenza - Avian,H5N1 HPAI,"domestic, chicken",,,1347,,,,,,
209712,National authorities,26.309817,31.860728,Africa,Egypt,Suhag,Allam,Centroid Admin2,6/1/2016,8/1/2016,Confirmed,Influenza - Avian,H5N1 HPAI,"domestic, duck",,10,,10,,,,,
225482,OIE,44.085556,27.330278,Europe,Romania,Constanta,Almalau,Exact,8/3/2017,16/03/2017,Confirmed,Influenza - Avian,H5N8 HPAI,"domestic, unspecified bird",39,39,39,0,0,,,,
225581,OIE,44.085556,27.330278,Europe,Romania,Constanta,Almalau,Exact,23/02/2017,21/03/2017,Confirmed,Influenza - Avian,H5N8 HPAI,"domestic, unspecified bird",29,2,2,27,0,,,,
224422,OIE,44.085556,27.330278,Europe,Romania,Constanta,Almalau,Exact,20/02/2017,28/02/2017,Confirmed,Influenza - Avian,H5N8 HPAI,"domestic, unspecified bird",35,35,35,0,0,,,,
224028,OIE,44.085556,27.330278,Europe,Romania,Constanta,Almalau,Unknown,11/2/2017,16/02/2017,Confirmed,Influenza - Avian,H5N8 HPAI,"domestic, unspecified bird",82,59,59,23,0,,,,
224027,OIE,44.085556,27.330278,Europe,Romania,Constanta,Almalau,Unknown,11/2/2017,16/02/2017,Confirmed,Influenza - Avian,H5N8 HPAI,"domestic, unspecified bird",63,7,7,56,0,,,,
220920,OIE,44.1017,2.1675,Europe,France,Midi-Pyrenees,Almayrac,Exact,11/12/2016,19/12/2016,Confirmed,Influenza - Avian,H5N8 HPAI,"wild, magpie",,1,1,0,0,,,,
220098,OIE,44.1017,2.1675,Europe,France,Midi-Pyrenees,Almayrac,Exact,1/12/2016,2/12/2016,Confirmed,Influenza - Avian,H5N8 HPAI,"domestic, chicken",6120,300,300,5820,0,,,,
219985,OIE,44.1017,2.1675,Europe,France,Midi-Pyrenees,Almayrac,Exact,1/12/2016,2/12/2016,Confirmed,Influenza - Avian,H5N8 HPAI,"domestic, duck",6120,300,300,5820,0,,0,,
219859,National authorities,44.1017,2.1675,Europe,France,Midi-Pyrenees,Almayrac,Centroid Admin2,25/11/2016,2/12/2016,Confirmed,Influenza - Avian,H5N8 HPAI,"domestic, duck",5143,2000,2000,3000,,,0,,
219811,OIE,52.3111,5.2361,Europe,Netherlands,Noord-Holland,Almeerder Zand,Unknown,13/11/2016,29/11/2016,Confirmed,Influenza - Avian,H5N8 HPAI,"wild, tufted duck",,1,1,0,0,,,,
211892,National authorities,29.865555,31.330759,Africa,Egypt,Cairo,Alo,Centroid Admin2,9/4/2016,17/04/2016,Confirmed,Influenza - Avian,H5N1 HPAI,"domestic, chicken",,10,,10,,,,,
227934,OIE,32.02978,12.57287,Africa,Libya,Yafran (Yefren),Alsabta,Exact,8/5/2017,19/05/2017,Confirmed,Influenza - Avian,H7 LPAI,"domestic, unspecified bird",20,,1,19,,,,,
214846,OIE,33.01888,44.78453,Asia,Iraq,Wassit,Alsewara 1,Exact,29/06/2016,25/07/2016,Confirmed,Influenza - Avian,H5N1 HPAI,"domestic, unspecified bird",539000,51049,51049,487951,0,,,,
217875,FAO Field Officer,27.0832,89.4412,Asia,Bhutan,Chhukha,Alubari Of Wangkha ,Exact,10/10/2016,15/10/2016,Confirmed,Influenza - Avian,H5N1 HPAI,"domestic, unspecified bird",3000,13,13,61,,,0,,
214849,OIE,33.09154,44.73868,Asia,Iraq,Baghdad,Alwahda,Exact,11/7/2016,25/07/2016,Confirmed,Influenza - Avian,H5N1 HPAI,"domestic, unspecified bird",19335,1500,1500,17835,0,,,,
214848,OIE,33.09154,44.73868,Asia,Iraq,Baghdad,Alwahda,Exact,11/7/2016,25/07/2016,Confirmed,Influenza - Avian,H5N1 HPAI,"domestic, unspecified bird",58000,400,400,57600,0,,,,
214845,OIE,33.09154,44.73868,Asia,Iraq,Baghdad,Alwahda,Exact,29/06/2016,25/07/2016,Confirmed,Influenza - Avian,H5N1 HPAI,"domestic, unspecified bird",15700,160,160,15540,0,,,,
214844,OIE,33.09154,44.73868,Asia,Iraq,Baghdad,Alwahda,Exact,22/06/2016,25/07/2016,Confirmed,Influenza - Avian,H5N1 HPAI,"domestic, unspecified bird",112500,1325,1325,111175,0,,,,
214843,OIE,33.09154,44.73868,Asia,Iraq,Baghdad,Alwahda,Exact,21/06/2016,25/07/2016,Confirmed,Influenza - Avian,H5N1 HPAI,"domestic, unspecified bird",28000,800,800,27200,0,,,,
214842,OIE,33.09154,44.73868,Asia,Iraq,Baghdad,Alwahda,Exact,15/06/2016,25/07/2016,Confirmed,Influenza - Avian,H5N1 HPAI,"domestic, unspecified bird",668000,439799,439799,228201,0,,,,
214850,OIE,33.09154,44.73868,Asia,Iraq,Baghdad,Alwahda,Exact,11/7/2016,25/07/2016,Confirmed,Influenza - Avian,H5N1 HPAI,"domestic, unspecified bird",17000,2315,2315,14685,0,,,,
211125,OIE,8.88,7.578,Africa,Nigeria,Nassarawa,Amac,Exact,1/3/2016,7/3/2016,Confirmed,Influenza - Avian,H5N1 HPAI,"domestic, chicken",1499,75,75,1424,,,,,
213853,OIE,6.76478,-1.7972,Africa,Ghana,Ashanti,Amadom Adankwame,Exact,10/6/2016,28/06/2016,Confirmed,Influenza - Avian,H5N1 HPAI,"domestic, chicken",4808,3132,3132,1676,0,,,,
206898,FAO Field Officer,7.7811,-4.9547,Africa,Ca´Te D'Ivoire,Vallee Du Bandama,"Amanibo 2, Bouake",Exact,18/05/2015,1/9/2015,Confirmed,Influenza - Avian,H5N1 HPAI,"domestic, chicken",4000,3644,1280,2720,0,,,,
221992,OIE,9.49508,76.40282,Asia,India,Kerala,Ambalappuzha South,Centroid Admin2,23/11/2016,12/1/2017,Confirmed,Influenza - Avian,H5N8 HPAI,"domestic, unspecified bird",12626,3146,3146,9480,0,,,,
221979,OIE,9.49508,76.40282,Asia,India,Kerala,Ambalapuzha North,Centroid Admin2,26/10/2016,12/1/2017,Confirmed,Influenza - Avian,H5N8 HPAI,"domestic, unspecified bird",65014,13505,13505,51509,0,,,,
224765,OIE,49.43,11.86,Europe,Germany,Bayern,Amberg,Unknown,21/02/2017,28/02/2017,Confirmed,Influenza - Avian,H5N8 HPAI,"wild, anatidae",,1,1,0,0,,,,
228504,OIE,50.026594,5.522735,Europe,Belgium,Region Wallonne,Amberloup,Exact,13/06/2017,15/06/2017,Confirmed,Influenza - Avian,H5N8 HPAI,"domestic, unspecified bird",25,10,10,15,0,,,,
209527,National authorities,30.949152,31.577861,Africa,Egypt,Dakahlia,Amer Kafr,Centroid Admin2,30/12/2015,31/12/2015,Confirmed,Influenza - Avian,H5N1 HPAI,"domestic, chicken, domestic, duck, domestic, unspecified bird",,60,,60,,,,,
225084,OIE,53.08,7.99,Europe,Germany,Niedersachsen,Ammerland,Exact,20/02/2017,10/3/2017,Confirmed,Influenza - Avian,H5N8 HPAI,"wild, swan",,1,1,0,0,,,,
209209,National authorities,26.688936,31.480568,Africa,Egypt,Suhag,Amour,Centroid Admin2,3/12/2015,5/12/2015,Confirmed,Influenza - Avian,H5N1 HPAI,"domestic, duck",,5,,5,,,,,
223466,OIE,52.313,4.89,Europe,Netherlands,Noord-Holland,Amstelveen,Unknown,31/01/2017,8/2/2017,Confirmed,Influenza - Avian,H5N8 HPAI,"wild, common coot, wild, anatidae",,4,4,0,0,,,,
226176,OIE,12.9628,108.227,Asia,Viet Nam,Dak Lak,An Binh,Exact,5/4/2017,7/4/2017,Confirmed,Influenza - Avian,H5N1 HPAI,"domestic, unspecified bird",43,43,43,0,0,,,,
206270,OIE,15.1074,108.7421,Asia,Viet Nam,Quang Ngai,"An Binh, Nghia Ky, Tu Nghia, Quang Ngai",Exact,23/07/2015,3/8/2015,Confirmed,Influenza - Avian,H5N6 HPAI,"domestic, unspecified bird",1200,1200,115,1085,0,,,,
224948,OIE,11.0753,106.2344,Asia,Viet Nam,Tay Ninh,An Thanh,Exact,3/3/2017,9/3/2017,Confirmed,Influenza - Avian,H5N1 HPAI,"domestic, unspecified bird",500,50,50,450,0,,,,
225940,OIE,43.3933,-0.899722,Europe,France,Aquitaine,Andrein,Unknown,20/03/2017,3/4/2017,Confirmed,Influenza - Avian,H5N8 HPAI,"domestic, unspecified bird",533,0,0,533,0,,,,
225741,OIE,43.3933,-0.899722,Europe,France,Aquitaine,Andrein,Exact,20/03/2017,28/03/2017,Confirmed,Influenza - Avian,H5N8 HPAI,"environmental sample, unspecified bird",1512,0,0,1512,0,,,,
225735,OIE,43.3933,-0.899722,Europe,France,Aquitaine,Andrein,Exact,17/03/2017,28/03/2017,Confirmed,Influenza - Avian,H5N8 HPAI,"environmental sample, unspecified bird",0,0,0,0,0,,,,
213973,OIE,2.909731,11.14532,Africa,Cameroon,Sud,Angale,Unknown,24/05/2016,4/7/2016,Confirmed,Influenza - Avian,H5N1 HPAI,"domestic, chicken",500,200,200,300,0,,,,
206940,OIE,6.260771,6.197462,Africa,Nigeria,Delta,Angbor,Exact,12/8/2015,3/9/2015,Confirmed,Influenza - Avian,H5N1 HPAI,"domestic, chicken",400,250,100,300,0,,,,
223398,OIE,58.88024,17.58002,Europe,Sweden,Soedermanlands Laen,Angelholm,Exact,30/01/2017,3/2/2017,Confirmed,Influenza - Avian,H5N8 HPAI,"domestic, unspecified bird",46,11,11,35,0,,,,
209693,OIE,9.8095,8.888,Africa,Nigeria,Plateau,Angle D,Exact,9/1/2016,13/01/2016,Confirmed,Influenza - Avian,H5N1 HPAI,"domestic, chicken",391,11,11,380,0,,,,
228492,OIE,2.1652,30.9236,Africa,Democratic Republic Of The Congo,Orientale,Anguza Pajulu,Exact,17/05/2017,14/06/2017,Confirmed,Influenza - Avian,H5N8 HPAI,"domestic, unspecified bird",,45,45,0,0,,,,
211090,OIE,9.85348,8.01702,Africa,Nigeria,Kaduna,Angware,Exact,29/02/2016,4/3/2016,Confirmed,Influenza - Avian,H5N1 HPAI,"domestic, chicken",39763,1500,1500,38263,0,,,,
211087,OIE,9.85348,8.01702,Africa,Nigeria,Kaduna,Angware,Exact,29/02/2016,4/3/2016,Confirmed,Influenza - Avian,H5N1 HPAI,"domestic, chicken",39763,1500,1500,38263,0,,,,
222694,OIE,51.74,11.95,Europe,Germany,Sachsen-Anhalt,Anhalt-Bitterfeld,Unknown,20/01/2017,20/01/2017,Confirmed,Influenza - Avian,H5N8 HPAI,"wild, wild duck",,1,1,0,0,,,,
225892,National authorities,32.04183,117.1691,Asia,China,Anhui Sheng,Anhui Sheng,Centroid Admin1,11/3/2017,24/03/2017,Confirmed,Influenza - Avian,H7N9 LPAI,,,,,,,,,1,
221419,National authorities,32.04183,117.1691,Asia,China,Anhui Sheng,Anhui Sheng,Centroid Admin1,,30/09/2015,Confirmed,Influenza - Avian,H9N2 LPAI,,,,,,,,0,1,
220952,National authorities,32.04183,117.1691,Asia,China,Anhui Sheng,Anhui Sheng,Centroid Admin1,,30/09/2015,Confirmed,Influenza - Avian,H7N9 LPAI,,,,,,,,,1,
213408,WHO,32.04183,117.1691,Asia,China,Anhui Sheng,Anhui Sheng,Exact,14/04/2015,14/12/2015,Confirmed,Influenza - Avian,H9N2 LPAI,,,,,,,,,1,
223203,National authorities,32.04183,117.1691,Asia,China,Anhui Sheng,Anhui Sheng,Centroid Admin1,26/01/2017,14/02/2017,Confirmed,Influenza - Avian,H7N9 LPAI,,,,,,,Male,32,1,
223601,National authorities,32.04183,117.1691,Asia,China,Anhui Sheng,Anhui Sheng,Centroid Admin1,,25/01/2017,Confirmed,Influenza - Avian,H7N9 LPAI,,,,,,,,,1,
223607,National authorities,32.04183,117.1691,Asia,China,Anhui Sheng,Anhui Sheng,Centroid Admin1,16/12/2016,16/01/2017,Confirmed,Influenza - Avian,H7N9 LPAI,,,,,,,,,1,1
223273,National authorities,32.04183,117.1691,Asia,China,Anhui Sheng,Anhui Sheng,Centroid Admin2,15/07/2016,31/10/2016,Confirmed,Influenza - Avian,H5N6 HPAI,"domestic, chicken, domestic, duck",,2,,,,,,,
223272,National authorities,32.04183,117.1691,Asia,China,Anhui Sheng,Anhui Sheng,Centroid Admin2,15/07/2016,31/10/2016,Confirmed,Influenza - Avian,H5N6 HPAI,"domestic, chicken, domestic, duck",,2,,,,,,,
223271,National authorities,32.04183,117.1691,Asia,China,Anhui Sheng,Anhui Sheng,Centroid Admin2,15/07/2016,31/10/2016,Confirmed,Influenza - Avian,H5N6 HPAI,"domestic, duck",,1,,,,,,,
223270,National authorities,32.04183,117.1691,Asia,China,Anhui Sheng,Anhui Sheng,Centroid Admin2,15/07/2016,31/10/2016,Confirmed,Influenza - Avian,H5N6 HPAI,"domestic, duck",,1,,,,,,,
223269,National authorities,32.04183,117.1691,Asia,China,Anhui Sheng,Anhui Sheng,Centroid Admin2,15/07/2016,31/10/2016,Confirmed,Influenza - Avian,H5N1 HPAI,"domestic, duck, domestic, chicken",,2,,,,,,,
215378,National authorities,32.04183,117.1691,Asia,China,Anhui Sheng,Anhui Sheng,Centroid Admin2,15/12/2015,15/01/2016,Confirmed,Influenza - Avian,H5N2 HPAI,"domestic, duck",,1,,,,,,,
215376,National authorities,32.04183,117.1691,Asia,China,Anhui Sheng,Anhui Sheng,Centroid Admin2,15/12/2015,15/01/2016,Confirmed,Influenza - Avian,H5N2 HPAI,"domestic, chicken, domestic, chicken",,2,,,,,0,,
215375,National authorities,32.04183,117.1691,Asia,China,Anhui Sheng,Anhui Sheng,Centroid Admin2,15/12/2015,15/01/2016,Confirmed,Influenza - Avian,H5N1 HPAI,"domestic, duck",,1,,,,,,,
209822,OIE,5.8655,6.2552,Africa,Nigeria,Delta,Aniocha,Exact,12/1/2016,19/01/2016,Confirmed,Influenza - Avian,H5N1 HPAI,"domestic, chicken",1609,402,402,1207,0,,,,
216730,National authorities,-6.35483,107.974,Asia,Indonesia,Jawa Barat,Anjatan Utara,Exact,8/1/2016,8/1/2016,Confirmed,Influenza - Avian,H5N1 HPAI,"domestic, chicken",,,230,,,,,,
210640,National authorities,30.814585,120.01959,Asia,China,Zhejiang Sheng,Anji Wholesale Market In Huzhou City,Centroid Admin2,,15/02/2016,Confirmed,Influenza - Avian,H7N9 LPAI,"domestic, chicken",,1,,,,,,,
210797,OIE,23.0552,120.1895,Asia,Taiwan (Province Of China),Taiwan Sheng,Annan District,Exact,5/2/2016,22/02/2016,Confirmed,Influenza - Avian,H5N2 HPAI,"domestic, chicken",11750,6031,6031,5719,0,,,,
223850,National authorities,30.53,117.05,Asia,China,Anhui Sheng,Anqing,Unknown,4/2/2017,16/02/2017,Confirmed,Influenza - Avian,H7N9 LPAI,,,,,,,,,1,
223851,National authorities,30.53,117.05,Asia,China,Anhui Sheng,Anqing,Unknown,27/01/2017,16/02/2017,Confirmed,Influenza - Avian,H7N9 LPAI,,,,,,,,,1,
222635,National authorities,30.53,117.05,Asia,China,Anhui Sheng,Anqing,Exact,13/01/2017,20/01/2017,Confirmed,Influenza - Avian,H7N9 LPAI,,,,,,,,,,
224776,OIE,49.18,10.69,Europe,Germany,Bayern,Ansbach,Unknown,27/02/2017,28/02/2017,Confirmed,Influenza - Avian,H5N8 HPAI,"wild, anatidae",,1,1,0,0,,,,
220831,National authorities,36.992852,127.291112,Asia,Republic Of Korea,Kyonggi-Do,Anseong-Si,Centroid Locality,12/12/2016,19/12/2016,Confirmed,Influenza - Avian,H5N8 HPAI,"wild, unspecified bird",,,,,,,,,
227565,OIE,36.992852,127.291112,Asia,Republic Of Korea,Kyonggi-Do,Anseong-Si,Exact,24/12/2016,4/5/2017,Confirmed,Influenza - Avian,H5N6 HPAI,"domestic, chicken",8520,40,40,8480,,,,,
227554,OIE,36.992852,127.291112,Asia,Republic Of Korea,Kyonggi-Do,Anseong-Si,Exact,23/12/2016,4/5/2017,Confirmed,Influenza - Avian,H5N6 HPAI,"domestic, chicken",222138,60,60,222078,,,,,
227551,OIE,36.992852,127.291112,Asia,Republic Of Korea,Kyonggi-Do,Anseong-Si,Exact,23/12/2016,4/5/2017,Confirmed,Influenza - Avian,H5N6 HPAI,"domestic, chicken",29965,150,150,29815,,,,,
227550,OIE,36.992852,127.291112,Asia,Republic Of Korea,Kyonggi-Do,Anseong-Si,Exact,22/12/2016,4/5/2017,Confirmed,Influenza - Avian,H5N6 HPAI,"domestic, chicken",54129,100,100,54029,,,,,
227533,OIE,36.992852,127.291112,Asia,Republic Of Korea,Kyonggi-Do,Anseong-Si,Exact,20/12/2016,4/5/2017,Confirmed,Influenza - Avian,H5N6 HPAI,"domestic, chicken",206742,200,200,206542,,,,,
227532,OIE,36.992852,127.291112,Asia,Republic Of Korea,Kyonggi-Do,Anseong-Si,Exact,20/12/2016,4/5/2017,Confirmed,Influenza - Avian,H5N6 HPAI,"domestic, chicken",96658,130,130,96528,,,,,
227520,OIE,36.992852,127.291112,Asia,Republic Of Korea,Kyonggi-Do,Anseong-Si,Exact,19/12/2016,4/5/2017,Confirmed,Influenza - Avian,H5N6 HPAI,"domestic, chicken",169340,50,50,169290,,,,,
227494,OIE,36.992852,127.291112,Asia,Republic Of Korea,Kyonggi-Do,Anseong-Si,Exact,16/12/2016,4/5/2017,Confirmed,Influenza - Avian,H5N6 HPAI,"domestic, chicken",29642,34,34,29608,0,,,,
227477,OIE,36.992852,127.291112,Asia,Republic Of Korea,Kyonggi-Do,Anseong-Si,Exact,14/12/2016,4/5/2017,Confirmed,Influenza - Avian,H5N6 HPAI,"domestic, chicken",293350,400,400,292950,0,,,,
227462,OIE,36.992852,127.291112,Asia,Republic Of Korea,Kyonggi-Do,Anseong-Si,Exact,13/12/2016,4/5/2017,Confirmed,Influenza - Avian,H5N6 HPAI,"domestic, chicken",43470,170,170,43300,0,,,,
227461,OIE,36.992852,127.291112,Asia,Republic Of Korea,Kyonggi-Do,Anseong-Si,Exact,13/12/2016,4/5/2017,Confirmed,Influenza - Avian,H5N6 HPAI,"domestic, duck",6253,203,203,6050,0,,,,
227459,OIE,36.992852,127.291112,Asia,Republic Of Korea,Kyonggi-Do,Anseong-Si,Exact,13/12/2016,4/5/2017,Confirmed,Influenza - Avian,H5N6 HPAI,"domestic, duck",5390,1,1,5389,0,,,,
227454,OIE,36.992852,127.291112,Asia,Republic Of Korea,Kyonggi-Do,Anseong-Si,Exact,12/12/2016,4/5/2017,Confirmed,Influenza - Avian,H5N6 HPAI,"domestic, duck",10650,150,150,10500,0,,,,
227438,OIE,36.992852,127.291112,Asia,Republic Of Korea,Kyonggi-Do,Anseong-Si,Exact,11/12/2016,4/5/2017,Confirmed,Influenza - Avian,H5N6 HPAI,"domestic, chicken",399065,61,61,399004,0,,,,
227409,OIE,36.992852,127.291112,Asia,Republic Of Korea,Kyonggi-Do,Anseong-Si,Exact,7/12/2016,4/5/2017,Confirmed,Influenza - Avian,H5N6 HPAI,"domestic, duck",5371,100,100,5271,0,,,,
227408,OIE,36.992852,127.291112,Asia,Republic Of Korea,Kyonggi-Do,Anseong-Si,Exact,7/12/2016,4/5/2017,Confirmed,Influenza - Avian,H5N6 HPAI,"domestic, chicken",59500,100,100,59400,0,,,,
227322,OIE,36.992852,127.291112,Asia,Republic Of Korea,Kyonggi-Do,Anseong-Si,Exact,1/12/2016,4/5/2017,Confirmed,Influenza - Avian,H5N6 HPAI,"domestic, chicken",39246,500,500,38746,0,,,,
227296,OIE,36.992852,127.291112,Asia,Republic Of Korea,Kyonggi-Do,Anseong-Si,Exact,25/11/2016,4/5/2017,Confirmed,Influenza - Avian,H5N6 HPAI,"domestic, chicken",27206,550,550,26656,0,,,,
227036,OIE,36.992852,127.291112,Asia,Republic Of Korea,Kyonggi-Do,Anseong-Si,Exact,14/01/2017,14/04/2017,Confirmed,Influenza - Avian,H5N6 HPAI,"domestic, chicken",108687,80,80,108607,0,,,,
227031,OIE,36.992852,127.291112,Asia,Republic Of Korea,Kyonggi-Do,Anseong-Si,Exact,9/1/2017,14/04/2017,Confirmed,Influenza - Avian,H5N6 HPAI,"domestic, chicken",144,30,30,114,0,,,,
227030,OIE,36.992852,127.291112,Asia,Republic Of Korea,Kyonggi-Do,Anseong-Si,Exact,9/1/2017,14/04/2017,Confirmed,Influenza - Avian,H5N6 HPAI,"domestic, chicken",99491,3887,3887,95604,0,,,,
227029,OIE,36.992852,127.291112,Asia,Republic Of Korea,Kyonggi-Do,Anseong-Si,Exact,8/1/2017,14/04/2017,Confirmed,Influenza - Avian,H5N6 HPAI,"domestic, chicken",137190,12,12,137178,0,,,,
227016,OIE,36.992852,127.291112,Asia,Republic Of Korea,Kyonggi-Do,Anseong-Si,Exact,1/1/2017,14/04/2017,Confirmed,Influenza - Avian,H5N6 HPAI,"domestic, chicken",376570,130,130,376440,0,,,,
227012,OIE,36.992852,127.291112,Asia,Republic Of Korea,Kyonggi-Do,Anseong-Si,Exact,30/12/2016,14/04/2017,Confirmed,Influenza - Avian,H5N6 HPAI,"domestic, chicken",39300,24,24,39276,0,,,,
227008,OIE,36.992852,127.291112,Asia,Republic Of Korea,Kyonggi-Do,Anseong-Si,Exact,28/12/2016,14/04/2017,Confirmed,Influenza - Avian,H5N6 HPAI,"domestic, chicken",42039,505,505,41534,0,,,,
222671,OIE,43.3347,0.2881,Europe,France,Midi-Pyrenees,Antin,Unknown,13/01/2017,20/01/2017,Confirmed,Influenza - Avian,H5N8 HPAI,"domestic, duck",12000,0,0,12000,0,,,,
222670,OIE,43.3347,0.2881,Europe,France,Midi-Pyrenees,Antin,Unknown,13/01/2017,20/01/2017,Confirmed,Influenza - Avian,H5N8 HPAI,"domestic, duck",8000,0,0,8000,0,,,,
222669,OIE,43.3347,0.2881,Europe,France,Midi-Pyrenees,Antin,Unknown,13/01/2017,20/01/2017,Confirmed,Influenza - Avian,H5N8 HPAI,"domestic, chicken",12500,0,0,12500,0,,,,
226123,National authorities,30.09,105.33,Asia,China,Sichuan Sheng,Anyue County,Unknown,,8/4/2017,Confirmed,Influenza - Avian,H7N9 LPAI,,,,,,,,0,1,
220013,OIE,40.814459,140.749038,Asia,Japan,Aomori,Aomori-Shi,Exact,2/12/2016,5/12/2016,Confirmed,Influenza - Avian,H5N6 HPAI,"domestic, duck",4725,5,5,4720,0,,0,,
219589,National authorities,40.814459,140.749038,Asia,Japan,Aomori,Aomorisi,Exact,28/11/2016,28/11/2016,Confirmed,Influenza - Avian,H5N6 HPAI,"domestic, duck",16500,10,10,,,,0,,
228441,National authorities,26.54849,31.65944,Africa,Egypt,Suhag,Aoulad Nossier,Centroid Admin2,22/03/2017,24/03/2017,Confirmed,Influenza - Avian,H5N8 HPAI,"domestic, duck",,20,,20,,,,,
226048,National authorities,26.54849,31.65944,Africa,Egypt,Suhag,Aoulad Nossier,Centroid Admin2,22/03/2017,24/03/2017,Confirmed,Influenza - Avian,H5N1 HPAI,"domestic, duck, domestic, turkey, domestic, unspecified bird",,20,,20,,,,,
209855,National authorities,26.54849,31.65944,Africa,Egypt,Suhag,Aoulad Nossier,Centroid Admin2,21/01/2016,22/01/2016,Confirmed,Influenza - Avian,H5N1 HPAI,"domestic, duck",,10,,10,,,,,
209854,National authorities,26.54849,31.65944,Africa,Egypt,Suhag,Aoulad Nossier,Centroid Admin2,20/01/2016,22/01/2016,Confirmed,Influenza - Avian,H5N1 HPAI,"domestic, turkey",,10,,10,,,,,
223963,OIE,10.9511,107.2079,Asia,Viet Nam,Dong Nai,Ap 3,Unknown,14/02/2017,21/02/2017,Confirmed,Influenza - Avian,H5N1 HPAI,"domestic, unspecified bird",5000,3000,2000,3000,0,,,,
223083,OIE,45.669,18.969,Europe,Serbia,Zapadno-Backi,Apatin (Danube River),Exact,25/01/2017,31/01/2017,Confirmed,Influenza - Avian,H5N8 LPAI,"wild,mute swan (cygnus olor))",,2,2,0,0,,,,
222741,OIE,45.736762,13.345811,Europe,Italy,Friuli-Venezia Giulia,Aquileia,Unknown,19/01/2017,24/01/2017,Confirmed,Influenza - Avian,H5N8 HPAI,"wild, whooper swan",,1,1,0,0,,,,
221935,OIE,43.699122,-0.264344,Europe,France,Aquitaine,Aquitaine,Exact,29/12/2016,9/1/2017,Confirmed,Influenza - Avian,H5N8 HPAI,"domestic, duck",6000,0,0,6000,0,,,,
221873,OIE,43.699122,-0.264344,Europe,France,Aquitaine,Aquitaine,Exact,24/12/2016,30/12/2016,Confirmed,Influenza - Avian,H5N8 HPAI,"domestic, duck",6000,100,100,0,0,,,,
221838,OIE,43.699122,-0.264344,Europe,France,Aquitaine,Aquitaine,Exact,21/12/2016,26/12/2016,Confirmed,Influenza - Avian,H5N3 LPAI,"domestic, unspecified bird",,,,,,,,,
224242,OIE,43.699122,-0.264344,Europe,France,Aquitaine,Aquitaine,Exact,19/02/2017,24/02/2017,Confirmed,Influenza - Avian,H5N8 HPAI,"domestic, duck",0,0,0,0,0,,,,
221130,FAO Field Officer,30.749261,31.896141,Africa,Egypt,Shrkia,Arab Elhaswa,Centroid Admin2,29/12/2016,2/1/2017,Confirmed,Influenza - Avian,H5N8 HPAI,"domestic, unspecified bird",190,89,60,101,,,0,,
226043,National authorities,29.09197,31.07445,Africa,Egypt,Beni Suef,Arab Marekt,Centroid Admin2,21/03/2017,23/03/2017,Confirmed,Influenza - Avian,H5N1 HPAI,"domestic, chicken",,22500,,22500,,,,,
224914,OIE,46.1762,21.3228,Europe,Romania,Arad,Arad,Unknown,1/2/2017,7/3/2017,Confirmed,Influenza - Avian,H5N8 HPAI,"wild,great cormorant (phalacrocorax carbo))",,1,1,0,0,,,,
211605,National authorities,29.208352,30.709447,Africa,Egypt,Fayoum,Arafa,Centroid Admin2,17/03/2016,19/03/2016,Confirmed,Influenza - Avian,H5N1 HPAI,"domestic, duck",,10,,10,,,,,
223504,OIE,43.708333,-0.175833,Europe,France,Midi-Pyrenees,Arblade Le Bas,Exact,29/01/2017,10/2/2017,Confirmed,Influenza - Avian,H5N8 HPAI,"domestic, unspecified bird",20,,,20,,,,,
221840,OIE,43.739722,-0.058611,Europe,France,Midi-Pyrenees,Arblade Le Haut,Exact,16/12/2016,26/12/2016,Confirmed,Influenza - Avian,H5N1 LPAI,"domestic, unspecified bird",1000,0,0,0,0,,,,
223515,OIE,43.708333,-0.175833,Europe,France,Midi-Pyrenees,Arblade The Bast,Exact,2/2/2017,10/2/2017,Confirmed,Influenza - Avian,H5N8 HPAI,"domestic, unspecified bird",,,,,,,,,
223032,OIE,43.6133,-0.434444,Europe,France,Aquitaine,Arboucave,Exact,17/01/2017,27/01/2017,Confirmed,Influenza - Avian,H5N8 HPAI,"domestic, chicken",27500,,45,27455,,,,,
222002,OIE,43.6133,-0.434444,Europe,France,Aquitaine,Arboucave,Unknown,9/1/2017,13/01/2017,Confirmed,Influenza - Avian,H5N8 HPAI,"domestic, unspecified bird",10500,300,300,0,0,,,,
221969,OIE,43.6133,-0.434444,Europe,France,Aquitaine,Arboucave,Exact,8/1/2017,13/01/2017,Confirmed,Influenza - Avian,H5N8 HPAI,"domestic, duck",3600,36,36,3564,,,,,
225743,OIE,43.3714,-1,Europe,France,Aquitaine,Arbouet Sussaute,Exact,20/03/2017,28/03/2017,Confirmed,Influenza - Avian,H5N8 HPAI,"environmental sample, unspecified bird",615,0,0,615,0,,,,
224634,OIE,48.125556,6.535556,Europe,France,Lorraine,Archettes,Exact,22/02/2017,3/3/2017,Confirmed,Influenza - Avian,H5N8 HPAI,"wild,mute swan (cygnus olor))",,0,0,0,0,,,,
223220,National authorities,42.24845,27.63247,Europe,Bulgaria,Burgas,Arcoutino,Centroid Admin2,4/1/2017,6/1/2017,Confirmed,Influenza - Avian,H5N8 HPAI,"wild, unspecified bird",,3,,,,,,,
226313,OIE,22.326084,114.189183,Asia,"Hong Kong, Sar",Administrative Unit Not Available,Argyle Street Playground,Exact,7/4/2017,12/4/2017,Confirmed,Influenza - Avian,H5N6 HPAI,"wild, unspecified bird",,1,1,0,0,,,,
221981,OIE,9.62228,76.64191,Asia,India,Kerala,Arpookkara,Centroid Admin2,26/10/2016,12/1/2017,Confirmed,Influenza - Avian,H5N8 HPAI,"domestic, unspecified bird",28051,2506,2506,25545,0,,,,
209269,OIE,43.541111,-0.089909,Europe,France,Aquitaine,Arroses,Exact,7/12/2015,14/12/2015,Confirmed,Influenza - Avian,H5N9 HPAI,"domestic, duck",500,25,25,475,0,,,,
225062,OIE,43.581111,-0.795,Europe,France,Aquitaine,Arsague,Exact,28/02/2017,10/3/2017,Confirmed,Influenza - Avian,H5N8 HPAI,"domestic, duck",0,0,0,0,0,,,,
211241,OIE,43.581111,-0.795,Europe,France,Aquitaine,Arsague,Exact,4/3/2016,10/3/2016,Confirmed,Influenza - Avian,H5N9 HPAI,"domestic, unspecified bird",14370,0,0,0,0,,,,
223048,OIE,49.1,1.7833,Europe,France,Ile-De-France,Arthies,Exact,18/01/2017,27/01/2017,Confirmed,Influenza - Avian,H5N2 LPAI,"domestic, pheasant",9050,0,0,0,0,,,,
223344,OIE,43.5367,-0.411389,Europe,France,Aquitaine,Arzacq-Arraziguet,Exact,24/01/2017,3/2/2017,Confirmed,Influenza - Avian,H5N8 HPAI,"domestic, duck",1000,0,0,1000,0,,,,
225691,OIE,35.720475,140.646563,Asia,Japan,Tiba,Asahi-Shi,Exact,23/03/2017,23/03/2017,Confirmed,Influenza - Avian,H5N6 HPAI,"domestic, chicken",68000,26,26,0,0,,,,
227538,OIE,36.886836,127.03875,Asia,Republic Of Korea,Chungchongnam-Do,Asan-Si,Exact,21/12/2016,4/5/2017,Confirmed,Influenza - Avian,H5N6 HPAI,"domestic, duck",6800,,,6800,,,,,
227489,OIE,36.886836,127.03875,Asia,Republic Of Korea,Chungchongnam-Do,Asan-Si,Exact,16/12/2016,4/5/2017,Confirmed,Influenza - Avian,H5N6 HPAI,"domestic, chicken",50074,74,74,50000,0,,,,
227469,OIE,36.886836,127.03875,Asia,Republic Of Korea,Chungchongnam-Do,Asan-Si,Exact,13/12/2016,4/5/2017,Confirmed,Influenza - Avian,H5N6 HPAI,"domestic, chicken",24612,12,12,24600,0,,,,
227426,OIE,36.886836,127.03875,Asia,Republic Of Korea,Chungchongnam-Do,Asan-Si,Exact,10/12/2016,4/5/2017,Confirmed,Influenza - Avian,H5N6 HPAI,"domestic, chicken",812,12,12,800,0,,,,
227413,OIE,36.886836,127.03875,Asia,Republic Of Korea,Chungchongnam-Do,Asan-Si,Exact,8/12/2016,4/5/2017,Confirmed,Influenza - Avian,H5N6 HPAI,"domestic, chicken",60009,20,9,60000,0,,,,
227412,OIE,36.886836,127.03875,Asia,Republic Of Korea,Chungchongnam-Do,Asan-Si,Exact,8/12/2016,4/5/2017,Confirmed,Influenza - Avian,H5N6 HPAI,"domestic, chicken",240190,190,190,240000,0,,,,
227356,OIE,36.886836,127.03875,Asia,Republic Of Korea,Chungchongnam-Do,Asan-Si,Exact,4/12/2016,4/5/2017,Confirmed,Influenza - Avian,H5N6 HPAI,"domestic, duck",7776,0,0,7776,0,,,,
227337,OIE,36.886836,127.03875,Asia,Republic Of Korea,Chungchongnam-Do,Asan-Si,Exact,2/12/2016,4/5/2017,Confirmed,Influenza - Avian,H5N6 HPAI,"domestic, chicken",160100,100,100,160000,0,,,,
227335,OIE,36.886836,127.03875,Asia,Republic Of Korea,Chungchongnam-Do,Asan-Si,Exact,2/12/2016,4/5/2017,Confirmed,Influenza - Avian,H5N6 HPAI,"domestic, chicken",200300,300,300,200000,0,,,,
227334,OIE,36.886836,127.03875,Asia,Republic Of Korea,Chungchongnam-Do,Asan-Si,Exact,2/12/2016,4/5/2017,Confirmed,Influenza - Avian,H5N6 HPAI,"domestic, chicken",4741,241,241,4500,0,,,,
227287,OIE,36.886836,127.03875,Asia,Republic Of Korea,Chungchongnam-Do,Asan-Si,Exact,23/11/2016,4/5/2017,Confirmed,Influenza - Avian,H5N6 HPAI,"domestic, chicken",53000,3000,3000,50000,0,,,,
227032,OIE,36.886836,127.03875,Asia,Republic Of Korea,Chungchongnam-Do,Asan-Si,Exact,10/1/2017,14/04/2017,Confirmed,Influenza - Avian,H5N6 HPAI,"domestic, chicken",100013,13,13,100000,0,,,,
227027,OIE,36.886836,127.03875,Asia,Republic Of Korea,Chungchongnam-Do,Asan-Si,Exact,7/1/2017,14/04/2017,Confirmed,Influenza - Avian,H5N6 HPAI,"domestic, chicken",121530,830,830,120700,0,,,,
222060,OIE,50.08,9,Europe,Germany,Bayern,Aschaffenburg,Unknown,27/12/2016,9/1/2017,Confirmed,Influenza - Avian,H5N8 HPAI,"wild, swan",,1,1,0,0,,,,
227597,OIE,42.0133,24.8783,Europe,Bulgaria,Plovdiv,Asenovgrad,Exact,9/2/2017,9/5/2017,Confirmed,Influenza - Avian,H5N8 HPAI,"wild,mute swan (cygnus olor))",1,1,1,,,,,,
223554,National authorities,42.0133,24.8783,Europe,Bulgaria,Plovdiv,Asenovgrad,Centroid Admin2,6/2/2017,14/02/2017,Confirmed,Influenza - Avian,H5N8 HPAI,"wild, unspecified bird",,1,,,,,0,,
215190,OIE,5.65615,-0.36013,Africa,Ghana,Greater Accra,Ashalaja,Exact,7/7/2016,5/8/2016,Confirmed,Influenza - Avian,,"domestic, unspecified bird",451,97,97,354,0,,,,
209526,National authorities,30.587772,31.492923,Africa,Egypt,Shrkia,Aslouke,Centroid Admin2,29/12/2015,30/12/2015,Confirmed,Influenza - Avian,H5N1 HPAI,"domestic, chicken",,10,,10,,,,,
214115,National authorities,27.11725,31.23243,Africa,Egypt,Assiut,Assiut,Centroid Admin2,7/7/2016,8/7/2016,Confirmed,Influenza - Avian,H5N1 HPAI,"domestic, turkey",,6,,6,,,,,
213708,National authorities,27.11725,31.23243,Africa,Egypt,Assiut,Assiut,Centroid Admin2,22/06/2016,23/06/2016,Confirmed,Influenza - Avian,H5N1 HPAI,"domestic, duck",,10,,10,,,,,
212279,National authorities,27.11725,31.23243,Africa,Egypt,Assiut,Assiut,Centroid Admin2,11/5/2016,13/05/2016,Confirmed,Influenza - Avian,H5N1 HPAI,"domestic, turkey",,10,,10,,,,,
211676,National authorities,27.11725,31.23243,Africa,Egypt,Assiut,Assiut,Centroid Admin2,24/03/2016,26/03/2016,Confirmed,Influenza - Avian,H5N1 HPAI,"domestic, turkey",,10,,10,,,,,
221017,National authorities,27.11725,31.23243,Africa,Egypt,Assiut,Assiut,Centroid Admin2,21/12/2016,22/12/2016,Confirmed,Influenza - Avian,H5N1 HPAI,"domestic, duck",,10,,10,,,,,
215619,National authorities,27.11725,31.23243,Africa,Egypt,Assiut,Assiut,Centroid Admin2,3/8/2016,4/8/2016,Confirmed,Influenza - Avian,H5N1 HPAI,"domestic, duck",,10,,10,,,,,
213351,National authorities,27.11725,31.23243,Africa,Egypt,Assiut,Assiut,Centroid Admin2,9/6/2016,10/6/2016,Confirmed,Influenza - Avian,H5N1 HPAI,"domestic, duck",,10,,10,,,,,
211894,National authorities,27.11725,31.23243,Africa,Egypt,Assiut,Assiut,Centroid Admin2,20/04/2016,22/04/2016,Confirmed,Influenza - Avian,H5N1 HPAI,"domestic, duck, domestic, turkey, domestic, unspecified bird",,20,,20,,,,,
216416,OIE,43.4147,-0.972222,Europe,France,Aquitaine,Athos Aspis,Exact,6/9/2016,15/09/2016,Confirmed,Influenza - Avian,H5N3 LPAI,"domestic, unspecified bird",6000,0,0,6000,0,,,,
226710,National authorities,28.64056,30.80771,Africa,Egypt,Menia,Atnia,Centroid Admin2,4/4/2017,5/4/2017,Confirmed,Influenza - Avian,H5N1 HPAI,"domestic, goose",,2,,2,,,,,
211135,National authorities,28.64056,30.80771,Africa,Egypt,Menia,Atnia,Centroid Admin2,26/02/2016,28/02/2016,Confirmed,Influenza - Avian,H5N1 HPAI,"domestic, chicken, domestic, duck, domestic, unspecified bird",,30,,30,,,,,
222677,OIE,43.6681,-0.4875,Europe,France,Aquitaine,Aubagnan,Unknown,17/01/2017,20/01/2017,Confirmed,Influenza - Avian,H5N8 HPAI,"domestic, unspecified bird",6300,0,0,6300,0,,,,
209337,OIE,43.6681,-0.4875,Europe,France,Aquitaine,Aubagnan,Exact,14/12/2015,22/12/2015,Confirmed,Influenza - Avian,H5N2 HPAI,"domestic, unspecified bird",770,0,0,770,0,,,,
224139,OIE,43.6681,-0.4875,Europe,France,Aquitaine,Audignon,Unknown,13/02/2017,17/02/2017,Confirmed,Influenza - Avian,H5N8 HPAI,"domestic, duck",30000,,35,29965,,,,,
220081,OIE,48.58,10.87,Europe,Germany,Bayern,Augsburg,Exact,22/11/2016,2/12/2016,Confirmed,Influenza - Avian,H5N8 HPAI,"wild,mute swan (cygnus olor))",,1,1,0,0,,,,
225729,OIE,43.3914,-0.970833,Europe,France,Aquitaine,Autevielle-Saint-Martin-Bideren,Exact,10/3/2017,28/03/2017,Confirmed,Influenza - Avian,H5N8 HPAI,"environmental sample, unspecified bird",0,0,0,0,0,,,,
222003,OIE,43.437222,0.271667,Europe,France,Midi-Pyrenees,Aux-Aussat,Unknown,10/1/2017,13/01/2017,Confirmed,Influenza - Avian,H5N8 HPAI,"domestic, unspecified bird",12000,0,0,0,0,,,,
220800,OIE,43.745556,0.070556,Europe,France,Midi-Pyrenees,Averon Bergelle,Unknown,11/12/2016,15/12/2016,Confirmed,Influenza - Avian,H5N8 HPAI,"domestic, duck",800,72,72,728,0,,,,
209332,OIE,43.745556,0.070556,Europe,France,Midi-Pyrenees,Averon Bergelle,Exact,12/12/2015,22/12/2015,Confirmed,Influenza - Avian,H5N2 HPAI,"domestic, unspecified bird",700,0,0,700,0,,,,
224007,OIE,32.530381,34.991327,Asia,Israel,Haifa,Avi'El,Unknown,2/2/2017,16/02/2017,Confirmed,Influenza - Avian,H5N8 HPAI,"domestic, turkey",52000,,3000,49000,0,,,,
228424,National authorities,26.54849,31.65944,Africa,Egypt,Suhag,Awlad Nossier,Centroid Admin2,22/05/2017,25/05/2017,Confirmed,Influenza - Avian,H5N1 HPAI,"domestic, chicken",,20,,20,,,,,
226261,OIE,44.3654,26.4417,Europe,Romania,Calarasi,Axintele,Exact,29/03/2017,12/4/2017,Confirmed,Influenza - Avian,H5N8 HPAI,"wild,mute swan (cygnus olor))",,1,1,0,0,,,,
221980,OIE,9.62228,76.64191,Asia,India,Kerala,Aymanam,Centroid Admin2,26/10/2016,12/1/2017,Confirmed,Influenza - Avian,H5N8 HPAI,"domestic, unspecified bird",34388,6197,6197,28191,0,,,,
209329,OIE,43.862763,-0.044144,Europe,France,Midi-Pyrenees,Ayzieu,Exact,11/12/2015,22/12/2015,Confirmed,Influenza - Avian,H5N2 HPAI,"domestic, unspecified bird",0,0,0,0,0,,,,
212610,National authorities,29.300739,30.889937,Africa,Egypt,Fayoum,Azab,Centroid Admin2,16/05/2016,18/05/2016,Confirmed,Influenza - Avian,H5N1 HPAI,"domestic, chicken",,1000,,1000,,,,,
221020,National authorities,26.13884,32.452374,Africa,Egypt,Qena,Azazia,Centroid Admin2,23/12/2016,24/12/2016,Confirmed,Influenza - Avian,H5N1 HPAI,"domestic, chicken",,8,,8,,,,,
211811,National authorities,26.13884,32.452374,Africa,Egypt,Qena,Azazia,Centroid Admin2,5/4/2016,8/4/2016,Confirmed,Influenza - Avian,H5N1 HPAI,"domestic, turkey",,10,,10,,,,,
227383,National authorities,26.13884,32.452374,Africa,Egypt,Qena,Azazia,Centroid Admin2,24/04/2017,25/04/2017,Confirmed,Influenza - Avian,H5N1 HPAI,"domestic, duck",,84,,84,,,,,
209708,National authorities,26.13884,32.452374,Africa,Egypt,Qena,Azazia,Centroid Admin2,6/1/2016,7/1/2016,Confirmed,Influenza - Avian,H5N1 HPAI,"domestic, chicken, domestic, duck, domestic, unspecified bird",,40,,40,,,,,
226715,National authorities,26.13884,32.452374,Africa,Egypt,Qena,Azazia,Centroid Admin2,6/4/2017,7/4/2017,Confirmed,Influenza - Avian,H5N1 HPAI,"domestic, duck",,20,,20,,,,,
216714,National authorities,-3.334296,102.446,Asia,Indonesia,Bengkulu,Babakan Baru,Exact,9/12/2015,9/12/2015,Confirmed,Influenza - Avian,H5N1 HPAI,"domestic, duck",,,150,,,,,,
216713,National authorities,-3.334296,102.446,Asia,Indonesia,Bengkulu,Babakan Baru,Exact,9/12/2015,9/12/2015,Confirmed,Influenza - Avian,H5N1 HPAI,"domestic, chicken",,,500,,,,,,
223097,OIE,46.585553,26.927262,Europe,Romania,Bacau,Bacau,Exact,27/01/2017,1/2/2017,Confirmed,Influenza - Avian,H5N8 HPAI,"domestic, unspecified bird",103,28,28,75,0,,,,
222324,OIE,46.585553,26.927262,Europe,Romania,Bacau,Bacau,Exact,3/1/2017,12/1/2017,Confirmed,Influenza - Avian,H5N8 HPAI,"wild, whooper swan",,3,3,0,0,,,,
208395,National authorities,24.785638,113.586692,Asia,China,Guangdong Sheng,Bachang Market,Exact,30/06/2015,12/11/2015,Confirmed,Influenza - Avian,H5N6 HPAI,"domestic, duck, domestic, chicken",,2,,,,,,,
224322,OIE,46.2545,18.9636,Europe,Hungary,Bacs-Kiskun,Bacs-Kiskun,Exact,17/01/2017,24/02/2017,Confirmed,Influenza - Avian,H5N8 HPAI,"domestic, duck",40577,3229,1929,38648,0,,,,
221670,OIE,46.2545,18.9636,Europe,Hungary,Bacs-Kiskun,Bacs-Kiskun,Unknown,15/12/2016,29/12/2016,Confirmed,Influenza - Avian,H5N8 HPAI,"domestic, chicken",167000,0,0,0,0,,,,
221665,OIE,46.2545,18.9636,Europe,Hungary,Bacs-Kiskun,Bacs-Kiskun,Unknown,12/12/2016,29/12/2016,Confirmed,Influenza - Avian,H5N8 HPAI,"domestic, duck",12000,0,0,0,0,,,,
220792,OIE,46.2545,18.9636,Europe,Hungary,Bacs-Kiskun,Bacs-Kiskun,Unknown,9/12/2016,15/12/2016,Confirmed,Influenza - Avian,H5N8 HPAI,"domestic, duck",9820,0,0,0,0,,,,
221634,OIE,46.2545,18.9636,Europe,Hungary,Bacs-Kiskun,Bacs-Kiskun,Unknown,7/12/2016,29/12/2016,Confirmed,Influenza - Avian,H5N8 HPAI,"domestic, duck",1328,0,0,0,0,,,,
221633,OIE,46.2545,18.9636,Europe,Hungary,Bacs-Kiskun,Bacs-Kiskun,Unknown,7/12/2016,29/12/2016,Confirmed,Influenza - Avian,H5N8 HPAI,"domestic, duck",5100,0,0,0,0,,,,
220776,OIE,46.2545,18.9636,Europe,Hungary,Bacs-Kiskun,Bacs-Kiskun,Unknown,7/12/2016,15/12/2016,Confirmed,Influenza - Avian,H5N8 HPAI,"domestic, duck",5400,0,0,0,0,,,,
220481,OIE,46.2545,18.9636,Europe,Hungary,Bacs-Kiskun,Bacs-Kiskun,Exact,7/12/2016,14/12/2016,Confirmed,Influenza - Avian,H5N8 HPAI,"domestic, duck",13620,0,0,0,0,,,,
220475,OIE,46.2545,18.9636,Europe,Hungary,Bacs-Kiskun,Bacs-Kiskun,Exact,7/12/2016,14/12/2016,Confirmed,Influenza - Avian,H5N8 HPAI,"domestic, duck",3000,0,0,0,0,,,,
220472,OIE,46.2545,18.9636,Europe,Hungary,Bacs-Kiskun,Bacs-Kiskun,Exact,7/12/2016,14/12/2016,Confirmed,Influenza - Avian,H5N8 HPAI,"domestic, duck",11000,0,0,0,0,,,,
221631,OIE,46.2545,18.9636,Europe,Hungary,Bacs-Kiskun,Bacs-Kiskun,Unknown,5/12/2016,29/12/2016,Confirmed,Influenza - Avian,H5N8 HPAI,"domestic, duck",7200,0,0,0,0,,,,
220464,OIE,46.2545,18.9636,Europe,Hungary,Bacs-Kiskun,Bacs-Kiskun,Exact,5/12/2016,14/12/2016,Confirmed,Influenza - Avian,H5N8 HPAI,"domestic, duck",20200,0,0,0,0,,,,
220460,OIE,46.2545,18.9636,Europe,Hungary,Bacs-Kiskun,Bacs-Kiskun,Exact,5/12/2016,14/12/2016,Confirmed,Influenza - Avian,H5N8 HPAI,"domestic, duck",4000,0,0,0,0,,,,
220459,OIE,46.2545,18.9636,Europe,Hungary,Bacs-Kiskun,Bacs-Kiskun,Exact,5/12/2016,14/12/2016,Confirmed,Influenza - Avian,H5N8 HPAI,"domestic, duck",13800,0,0,0,0,,,,
220458,OIE,46.2545,18.9636,Europe,Hungary,Bacs-Kiskun,Bacs-Kiskun,Exact,5/12/2016,14/12/2016,Confirmed,Influenza - Avian,H5N8 HPAI,"domestic, duck",4300,0,0,0,0,,,,
220457,OIE,46.2545,18.9636,Europe,Hungary,Bacs-Kiskun,Bacs-Kiskun,Exact,5/12/2016,14/12/2016,Confirmed,Influenza - Avian,H5N8 HPAI,"domestic, duck",9700,0,0,0,0,,,,
220455,OIE,46.2545,18.9636,Europe,Hungary,Bacs-Kiskun,Bacs-Kiskun,Exact,5/12/2016,14/12/2016,Confirmed,Influenza - Avian,H5N8 HPAI,"domestic, goose",860,0,0,0,0,,,,
220453,OIE,46.2545,18.9636,Europe,Hungary,Bacs-Kiskun,Bacs-Kiskun,Exact,5/12/2016,14/12/2016,Confirmed,Influenza - Avian,H5N8 HPAI,"domestic, duck",15500,0,0,0,0,,,,
220452,OIE,46.2545,18.9636,Europe,Hungary,Bacs-Kiskun,Bacs-Kiskun,Exact,5/12/2016,14/12/2016,Confirmed,Influenza - Avian,H5N8 HPAI,"domestic, duck",3700,0,0,0,0,,,,
220451,OIE,46.2545,18.9636,Europe,Hungary,Bacs-Kiskun,Bacs-Kiskun,Exact,5/12/2016,14/12/2016,Confirmed,Influenza - Avian,H5N8 HPAI,"domestic, duck",5550,0,0,0,0,,,,
220444,OIE,46.2545,18.9636,Europe,Hungary,Bacs-Kiskun,Bacs-Kiskun,Exact,5/12/2016,13/12/2016,Confirmed,Influenza - Avian,H5N8 HPAI,"domestic, goose",1000,0,0,0,0,,,,
220420,OIE,46.2545,18.9636,Europe,Hungary,Bacs-Kiskun,Bacs-Kiskun,Exact,29/11/2016,13/12/2016,Confirmed,Influenza - Avian,H5N8 HPAI,"domestic, goose",600,0,0,0,0,,,,
220418,OIE,46.2545,18.9636,Europe,Hungary,Bacs-Kiskun,Bacs-Kiskun,Exact,29/11/2016,13/12/2016,Confirmed,Influenza - Avian,H5N8 HPAI,"domestic, duck",1700,0,0,0,0,,,,
220184,OIE,46.2545,18.9636,Europe,Hungary,Bacs-Kiskun,Bacs-Kiskun,Exact,27/11/2016,7/12/2016,Confirmed,Influenza - Avian,H5N8 HPAI,"domestic, duck",7000,0,0,0,0,,,,
220183,OIE,46.2545,18.9636,Europe,Hungary,Bacs-Kiskun,Bacs-Kiskun,Exact,26/11/2016,7/12/2016,Confirmed,Influenza - Avian,H5N8 HPAI,"domestic, duck",5840,0,0,5840,0,,,,
220182,OIE,46.2545,18.9636,Europe,Hungary,Bacs-Kiskun,Bacs-Kiskun,Exact,26/11/2016,7/12/2016,Confirmed,Influenza - Avian,H5N8 HPAI,"domestic, duck",7100,0,0,7100,0,,,,
220168,OIE,46.2545,18.9636,Europe,Hungary,Bacs-Kiskun,Bacs-Kiskun,Exact,24/11/2016,7/12/2016,Confirmed,Influenza - Avian,H5N8 HPAI,"domestic, duck",20000,0,0,0,0,,,,
223434,OIE,50.2,10.066667,Europe,Germany,Bayern,Bad Kissingen,Exact,24/01/2017,3/2/2017,Confirmed,Influenza - Avian,H5N8 HPAI,"wild, swan, wild, wild duck",,2,2,0,0,,0,,
223381,OIE,50.33,11.64,Europe,Germany,Bayern,Bad Steben,Exact,28/01/2017,3/2/2017,Confirmed,Influenza - Avian,H5N8 HPAI,"domestic, chicken",22,14,14,8,0,,,,
216637,National authorities,3.512024,117.104,Asia,Indonesia,Kalimantan Timur,Badan Bikis,Exact,19/04/2016,19/04/2016,Confirmed,Influenza - Avian,H5N1 HPAI,"domestic, chicken",,50,50,,,,,,
211751,National authorities,28.951494,30.85256,Africa,Egypt,Beni Suef,Badhel,Centroid Admin2,31/03/2016,1/4/2016,Confirmed,Influenza - Avian,H5N1 HPAI,"domestic, chicken",,10,,10,,,,,
211896,National authorities,29.825055,31.237321,Africa,Egypt,Giza,Badrasheen,Centroid Admin2,20/04/2016,22/04/2016,Confirmed,Influenza - Avian,H5N1 HPAI,"domestic, duck",,10,,10,,,,,
213349,National authorities,29.825055,31.237321,Africa,Egypt,Giza,Badrashin,Centroid Admin2,8/6/2016,9/6/2016,Confirmed,Influenza - Avian,H5N1 HPAI,"domestic, duck",,10,,10,,,,,
212684,National authorities,29.825055,31.237321,Africa,Egypt,Giza,Badrashin,Centroid Admin2,25/05/2016,27/05/2016,Confirmed,Influenza - Avian,H5N1 HPAI,"domestic, duck",,10,,10,,,,,
216602,National authorities,5.510851,10.453844,Africa,Cameroon,Ouest,Bafoussam,Centroid Admin2,,15/09/2016,Denied,Influenza - Avian,H5N1 HPAI,,,,,,,,,3,
212731,FAO Field Officer,5.510851,10.453844,Africa,Cameroon,Ouest,Bafoussam,Exact,31/05/2016,31/05/2016,Confirmed,Influenza - Avian,H5N1 HPAI,"domestic, chicken",428,61,61,367,,,,,
221517,FAO Field Officer,1.472,101.479,Asia,Indonesia,Riau,Bagan Besar,Exact,9/11/2016,9/11/2016,Confirmed,Influenza - Avian,H5N1 HPAI,"domestic, chicken",,,3,,,,,,
210442,OIE,12.1557,8.1403,Africa,Nigeria,Kano,Bagwai,Exact,3/2/2016,8/2/2016,Confirmed,Influenza - Avian,H5N1 HPAI,"domestic, chicken",450,85,85,365,0,,,,
223033,OIE,43.6747,-0.355,Europe,France,Aquitaine,Bahus Soubiran,Exact,17/01/2017,27/01/2017,Confirmed,Influenza - Avian,H5N8 HPAI,"domestic, duck",980,0,0,980,0,,,,
222667,OIE,43.6747,-0.355,Europe,France,Aquitaine,Bahus Soubiran,Unknown,13/01/2017,20/01/2017,Confirmed,Influenza - Avian,H5N8 HPAI,"domestic, chicken",6000,100,100,5900,0,,,,
221965,OIE,43.6747,-0.355,Europe,France,Aquitaine,Bahus Soubiran,Exact,6/1/2017,13/01/2017,Confirmed,Influenza - Avian,H5N8 HPAI,"domestic, duck",8000,,50,0,,,,,
221957,OIE,43.6747,-0.355,Europe,France,Aquitaine,Bahus Soubiran,Exact,4/1/2017,13/01/2017,Confirmed,Influenza - Avian,H5N8 HPAI,"domestic, duck",4100,,41,4059,,,,,
225066,OIE,43.687222,-0.790278,Europe,France,Aquitaine,Baigts,Exact,1/3/2017,10/3/2017,Confirmed,Influenza - Avian,H5N8 HPAI,"domestic, duck",0,0,0,0,0,,,,
224644,OIE,43.687222,-0.790278,Europe,France,Aquitaine,Baigts,Exact,20/02/2017,3/3/2017,Confirmed,Influenza - Avian,H5N8 HPAI,"domestic, duck",0,0,0,0,0,,,,
224643,OIE,43.687222,-0.790278,Europe,France,Aquitaine,Baigts,Exact,20/02/2017,3/3/2017,Confirmed,Influenza - Avian,H5N8 HPAI,"domestic, duck",0,0,0,0,0,,,,
224201,OIE,43.687222,-0.790278,Europe,France,Aquitaine,Baigts,Exact,14/02/2017,24/02/2017,Confirmed,Influenza - Avian,H5N8 HPAI,"domestic, duck",0,0,0,0,0,,,,
224099,OIE,43.687222,-0.790278,Europe,France,Aquitaine,Baigts,Unknown,6/2/2017,17/02/2017,Confirmed,Influenza - Avian,H5N8 HPAI,"domestic, duck",6240,0,0,6240,0,,,,
228525,National authorities,23.98256,106.707275,Asia,China,Guangxi Zhuangzu Zizhiqu,Baise,Centroid Admin2,,16/06/2017,Confirmed,Influenza - Avian,H7N9 LPAI,,,,,,,Male,55,1,1
228143,National authorities,23.98256,106.707275,Asia,China,Guangxi Zhuangzu Zizhiqu,Baise,Centroid Admin2,25/05/2017,2/6/2017,Confirmed,Influenza - Avian,H7N9 LPAI,,,,,,,Male,49,1,1
225032,National authorities,23.98256,106.707275,Asia,China,Guangxi Zhuangzu Zizhiqu,Baise,Unknown,1/3/2017,10/3/2017,Confirmed,Influenza - Avian,H7N9 LPAI,,,,,,,,,1,
224673,National authorities,23.98256,106.707275,Asia,China,Guangxi Zhuangzu Zizhiqu,Baise,Unknown,19/02/2017,6/3/2017,Confirmed,Influenza - Avian,H7N9 LPAI,,,,,,,,,1,
228555,OIE,50.380586,3.69829,Europe,Belgium,Region Wallonne,Baisieux,Exact,16/06/2017,19/06/2017,Confirmed,Influenza - Avian,H5N8 HPAI,"domestic, unspecified bird",26,21,21,5,0,,,,
228610,National authorities,26.67,106.62,Asia,China,Guizhou Sheng,"Baiyun District, Guiyang City",Centroid Admin2,15/06/2017,19/06/2017,Confirmed,Influenza - Avian,H7N9 LPAI,,,,,,,Male,33,1,
224992,OIE,11.550267,7.439117,Africa,Nigeria,Katsina,Bakori,Exact,1/3/2017,13/03/2017,Confirmed,Influenza - Avian,H5N1 HPAI,"domestic, chicken",3198,320,320,2878,,,0,,
207507,OIE,11.550267,7.439117,Africa,Nigeria,Katsina,Bakori,Exact,21/02/2015,19/09/2015,Confirmed,Influenza - Avian,H5N1 HPAI,"domestic, chicken",650,120,120,530,0,,,,
207509,OIE,11.550267,7.439117,Africa,Nigeria,Katsina,Bakori,Exact,23/02/2015,19/09/2015,Confirmed,Influenza - Avian,H5N1 HPAI,"domestic, chicken",2500,1400,1400,1100,0,,,,
223488,OIE,36.626829,52.654945,Asia,Iran  (Islamic Republic Of),Mazandaran,Balakasgarmahalle,Exact,12/1/2017,13/02/2017,Confirmed,Influenza - Avian,H5N8 HPAI,"domestic, ostrich",111,50,16,95,0,,,,
216654,National authorities,-5.126296,120.246,Asia,Indonesia,Sulawesi Selatan,Balangnipa,Exact,30/04/2016,30/04/2016,Confirmed,Influenza - Avian,H5N1 HPAI,"domestic, chicken",,2,2,,,,,,
216655,National authorities,-5.126296,120.246,Asia,Indonesia,Sulawesi Selatan,Balangnipa,Exact,22/04/2016,22/04/2016,Confirmed,Influenza - Avian,H5N1 HPAI,"domestic, chicken",,17,17,,,,,,
224512,OIE,47.0272,18.0186,Europe,Hungary,Veszprem,BalatonalmaiDi,Exact,19/01/2017,28/02/2017,Confirmed,Influenza - Avian,H5N8 HPAI,"wild, greater white-fronted goose",,1,1,0,0,,,,
226628,National authorities,1.172192,101.157,Asia,Indonesia,Riau,Balik Alam,Exact,23/03/2017,23/03/2017,Confirmed,Influenza - Avian,H5N1 HPAI,"domestic, chicken",,,200,,,,,,
226587,National authorities,1.172192,101.157,Asia,Indonesia,Riau,Balik Alam,Exact,24/02/2017,24/02/2017,Confirmed,Influenza - Avian,H5N1 HPAI,"domestic, chicken",,,20,,,,,,
223341,OIE,43.5467,-0.253889,Europe,France,Aquitaine,Baliracq Maumusson,Exact,23/01/2017,3/2/2017,Confirmed,Influenza - Avian,H5N8 HPAI,"domestic, duck",7500,0,0,7500,0,,,,
224498,OIE,47.6756,21.3283,Europe,Hungary,Hajdu-Bihar,BalmazajvaiRos,Exact,10/1/2017,28/02/2017,Confirmed,Influenza - Avian,H5N8 HPAI,"wild, greater white-fronted goose",,1,1,0,0,,,,
216612,National authorities,-6.356175,108.374,Asia,Indonesia,Jawa Barat,Balongan,Exact,5/4/2016,5/4/2016,Confirmed,Influenza - Avian,H5N1 HPAI,"domestic, chicken",,4,4,,,,,,
223096,OIE,44.760921,26.175561,Europe,Romania,Prahova,Balta Doamnei,Exact,27/01/2017,1/2/2017,Confirmed,Influenza - Avian,H5N8 HPAI,"domestic, unspecified bird",264,58,58,206,0,,,,
225666,OIE,49.92,10.78,Europe,Germany,Bayern,Bamberg,Exact,15/03/2017,23/03/2017,Confirmed,Influenza - Avian,H5N8 HPAI,"wild, swan, wild, anatidae",,2,2,0,0,,,,
211715,OIE,9.83279,8.86445,Africa,Nigeria,Plateau,Bamkap,Exact,1/4/2016,3/4/2016,Confirmed,Influenza - Avian,H5N1 HPAI,"domestic, chicken",4878,76,76,4802,0,,,,
226042,National authorities,30.45251,31.20115,Africa,Egypt,Kalyoubia,Banah Market,Centroid Admin2,20/03/2017,22/03/2017,Confirmed,Influenza - Avian,H5N1 HPAI,"domestic, chicken",,10,,10,,,,,
216678,National authorities,-4.706423,104.986,Asia,Indonesia,Lampung,Bandar Abung,Exact,14/06/2016,14/06/2016,Confirmed,Influenza - Avian,H5N1 HPAI,"domestic, chicken",,15,15,,,,,,
216738,National authorities,-4.429319,104.356,Asia,Indonesia,Lampung,Bandar Sari,Exact,18/01/2016,18/01/2016,Confirmed,Influenza - Avian,H5N1 HPAI,"domestic, chicken",,,203,,,,,,
228434,National authorities,30.45251,31.20115,Africa,Egypt,Kalyoubia,Bandr Banha,Centroid Admin2,5/6/2017,6/6/2017,Confirmed,Influenza - Avian,H5N1 HPAI,"domestic, turkey",,16,,16,,,,,
207815,OIE,10.6972,-4.7771,Africa,Burkina Faso,Cascades,Banfora,Exact,1/6/2015,2/10/2015,Confirmed,Influenza - Avian,H5N1 HPAI,"domestic, unspecified bird",5000,2119,2119,0,2528,,,,
209729,OIE,21.7288,106.4847,Asia,Viet Nam,Lang Son,Bang Huu,Exact,2/1/2016,15/01/2016,Confirmed,Influenza - Avian,H5N6 HPAI,"domestic, unspecified bird",220,155,155,65,0,,,,
229617,National authorities,1.01676,104.60271,Asia,Indonesia,Kepulauan-Riau,Bangka,Centroid Admin2,,31/05/2017,Confirmed,Influenza - Avian,H5N1 HPAI,"domestic, chicken",,,12,,,,,,
226600,National authorities,-6.486966,108.281,Asia,Indonesia,Jawa Barat,Bangkallir,Exact,14/03/2017,14/03/2017,Confirmed,Influenza - Avian,H5N1 HPAI,"domestic, duck",,,215,,,,,,
215000,National authorities,30.125164,31.339166,Africa,Egypt,Cairo,Banha,Centroid Admin2,10/7/2016,12/7/2016,Confirmed,Influenza - Avian,H5N1 HPAI,"domestic, chicken",,5000,,5000,,,,,
214112,National authorities,30.125164,31.339166,Africa,Egypt,Cairo,Banha,Centroid Admin2,4/7/2016,5/7/2016,Confirmed,Influenza - Avian,H5N1 HPAI,"domestic, duck",,10,,10,,,,,
226722,National authorities,30.125164,31.339166,Africa,Egypt,Cairo,Banha,Centroid Admin2,10/4/2017,11/4/2017,Confirmed,Influenza - Avian,H5N1 HPAI,"domestic, turkey",,10,,10,,,,,
209718,National authorities,30.125164,31.339166,Africa,Egypt,Cairo,Banha,Centroid Admin2,10/1/2016,14/01/2016,Confirmed,Influenza - Avian,H5N1 HPAI,"domestic, duck",,9,,9,,,,,
209539,National authorities,26.785216,31.453291,Africa,Egypt,Suhag,Bani Amar,Centroid Admin2,31/12/2015,2/1/2016,Confirmed,Influenza - Avian,H5N1 HPAI,"domestic, chicken",,5500,,5500,,,,,
223129,National authorities,29.09197,31.07445,Africa,Egypt,Beni Suef,Bani Anan,Centroid Admin2,26/01/2017,26/01/2017,Confirmed,Influenza - Avian,H5N1 HPAI,"domestic, chicken",,40,,40,,,,,
223593,National authorities,29.09197,31.07445,Africa,Egypt,Beni Suef,Bani Anan,Centroid Admin2,6/2/2017,7/2/2017,Confirmed,Influenza - Avian,H5N1 HPAI,"domestic, duck",,10,,10,,,,,
206597,National authorities,27.942195,30.77588,Africa,Egypt,Menia,Bani Ebid,Centroid Admin2,31/07/2015,2/8/2015,Confirmed,Influenza - Avian,H5N1 HPAI,"domestic, chicken",,,,,,,,,
227390,National authorities,28.51547,30.74814,Africa,Egypt,Menia,Bani Mazar,Centroid Admin2,28/04/2017,29/04/2017,Confirmed,Influenza - Avian,H5N1 HPAI,"domestic, goose",,35,,35,,,,,
226732,National authorities,28.51547,30.74814,Africa,Egypt,Menia,Bani Mazar,Centroid Admin2,14/04/2017,15/04/2017,Confirmed,Influenza - Avian,H5N1 HPAI,"domestic, duck",,10,,10,,,,,
213350,National authorities,28.51547,30.74814,Africa,Egypt,Menia,Bani Mazar,Centroid Admin2,9/6/2016,10/6/2016,Confirmed,Influenza - Avian,H5N1 HPAI,"domestic, duck",,20,,20,,,,,
229619,National authorities,-7.35587,109.66004,Asia,Indonesia,Jawa Tengah,Banjarnegara,Centroid Admin2,,31/05/2017,Confirmed,Influenza - Avian,H5N1 HPAI,"domestic, chicken",,,39,,,,,,
208532,OIE,34.892433,126.638834,Asia,Republic Of Korea,Chollanam-Do,Bannam-Myeon,Exact,23/10/2015,16/11/2015,Confirmed,Influenza - Avian,H5N8 HPAI,"domestic, unspecified bird",15600,,0,15600,0,,,,
223993,OIE,43.625833,1.751944,Europe,France,Midi-Pyrenees,Bannieres,Unknown,6/2/2017,17/02/2017,Confirmed,Influenza - Avian,H5N1 LPAI,"domestic, duck",0,0,0,0,0,,,,
224240,OIE,43.730244,-0.621808,Europe,France,Aquitaine,Banos,Exact,17/02/2017,24/02/2017,Confirmed,Influenza - Avian,H5N8 HPAI,"domestic, duck",0,0,0,0,0,,,,
223366,OIE,43.730244,-0.621808,Europe,France,Aquitaine,Banos,Exact,19/01/2017,3/2/2017,Confirmed,Influenza - Avian,H5N1 LPAI,"domestic, duck",0,0,0,0,0,,,,
223412,OIE,48.053213,18.221258,Europe,Slovakia,Nitra,Banov,Exact,23/01/2017,5/2/2017,Confirmed,Influenza - Avian,H5N8 HPAI,"wild,mute swan (cygnus olor))",,1,1,0,0,,,,
216748,National authorities,-6.566758,107.911,Asia,Indonesia,Jawa Barat,Bantarwaru,Exact,22/02/2016,22/02/2016,Confirmed,Influenza - Avian,H5N1 HPAI,"domestic, quail",,,127,,,,,,
216727,National authorities,-4.081431,104.18,Asia,Indonesia,Sumatera Selatan,Banu Ayu,Exact,28/12/2015,28/12/2015,Confirmed,Influenza - Avian,H5N1 HPAI,"domestic, quail",,,1000,,,,,,
218751,National authorities,-7.799047,110.179791,Asia,Indonesia,Daerah Istimewa Yogyakarta,Banyuroto,Exact,6/9/2016,6/9/2016,Confirmed,Influenza - Avian,H5N1 HPAI,"domestic, chicken",,,27,,,,,,
217077,National authorities,-7.799047,110.179791,Asia,Indonesia,Daerah Istimewa Yogyakarta,Banyuroto,Exact,12/8/2016,12/8/2016,Confirmed,Influenza - Avian,H5N1 HPAI,"domestic, duck",,,30,,,,,,
216428,National authorities,22.357575,104.158653,Asia,Viet Nam,Lao Cai,Bao Thang And Bao Yen District,Centroid Admin1,29/08/2016,15/09/2016,Confirmed,Influenza - Avian,H5N6 HPAI,"domestic, unspecified bird",,,6404,,,,,,
209470,National authorities,22.55712,113.882276,Asia,China,Guangdong Sheng,Baoan District,Exact,27/12/2015,4/1/2016,Confirmed,Influenza - Avian,H5N6 HPAI,,,,,,,,,1,1
227886,National authorities,38.867,115.467,Asia,China,Hebei Sheng,Baoding,Unknown,3/5/2017,12/5/2017,Confirmed,Influenza - Avian,H7N9 LPAI,,,,,,,,,1,1
227620,National authorities,38.867,115.467,Asia,China,Hebei Sheng,Baoding,Unknown,27/04/2017,5/5/2017,Confirmed,Influenza - Avian,H7N9 LPAI,,,,,,,,,1,
227618,National authorities,38.867,115.467,Asia,China,Hebei Sheng,Baoding,Unknown,25/04/2017,5/5/2017,Confirmed,Influenza - Avian,H7N9 LPAI,,,,,,,,,1,1
227617,National authorities,38.867,115.467,Asia,China,Hebei Sheng,Baoding,Unknown,24/04/2017,5/5/2017,Confirmed,Influenza - Avian,H7N9 LPAI,,,,,,,,,1,
228021,National authorities,38.867,115.467,Asia,China,Hebei Sheng,Baoding,Unknown,,30/04/2017,Confirmed,Influenza - Avian,H7N9 LPAI,"domestic, chicken",,1,,,,,,,
228490,National authorities,46.333333,132.2,Asia,China,Heilongjiang Sheng,Baoqing County ,Unknown,16/06/2017,16/06/2017,Confirmed,Influenza - Avian,H7N9 HPAI,"domestic, chicken",36110,20150,19500,16610,,,0,,
225763,OIE,23.713343,120.289186,Asia,Taiwan (Province Of China),Taiwan Sheng,Baozhong Township,Exact,21/03/2017,27/03/2017,Confirmed,Influenza - Avian,H5N2 HPAI,"domestic, chicken",10314,600,600,9714,0,,,,
223405,OIE,23.713343,120.289186,Asia,Taiwan (Province Of China),Taiwan Sheng,Baozhong Township,Exact,16/01/2017,6/2/2017,Confirmed,Influenza - Avian,H5N2 HPAI,"domestic, chicken",10000,9000,9000,1000,0,,,,
208783,OIE,23.713343,120.289186,Asia,Taiwan (Province Of China),Taiwan Sheng,Baozhong Township,Unknown,28/01/2015,23/11/2015,Confirmed,Influenza - Avian,H5N2 LPAI,"domestic, unspecified bird",11355,,1300,10055,0,,,,
206735,OIE,55.055,78.5284,Europe,Russian Federation,Novosibirskaya Oblast,"Barabinsk, Barabinsky",Exact,11/5/2015,21/08/2015,Confirmed,Influenza - Avian,H5N1 HPAI,"wild, rook",,1,0,1,0,,,,
222405,National authorities,31.05317,31.4671,Africa,Egypt,Dakahlia,Baramoun,Centroid Locality,5/1/2017,6/1/2017,Confirmed,Influenza - Avian,H5N1 HPAI,"domestic, chicken, domestic, duck, domestic, unspecified bird",,25,,25,,,,,
213341,National authorities,31.05317,31.4671,Africa,Egypt,Dakahlia,Baramoun,Centroid Admin2,31/05/2016,1/6/2016,Confirmed,Influenza - Avian,H5N1 HPAI,"domestic, chicken",,16,,16,,,,,
211609,National authorities,31.05317,31.4671,Africa,Egypt,Dakahlia,Baramoun,Centroid Admin2,21/03/2016,23/03/2016,Confirmed,Influenza - Avian,H5N1 HPAI,"domestic, chicken",,10,,10,,,,,
223495,OIE,36.58872,52.46211,Asia,Iran  (Islamic Republic Of),Mazandaran,Baran Jooje Farm,Exact,25/01/2017,13/02/2017,Confirmed,Influenza - Avian,H5N8 HPAI,"domestic, chicken",29503,6000,83,29420,0,,,,
216778,National authorities,-3.84807,119.585,Asia,Indonesia,Sulawesi Selatan,Barang Palie,Exact,3/2/2016,3/2/2016,Confirmed,Influenza - Avian,H5N1 HPAI,"domestic, chicken",,,1000,,,,,,
221865,OIE,43.704167,-0.234722,Europe,France,Midi-Pyrenees,Barcelone Du Gers,Exact,23/12/2016,30/12/2016,Confirmed,Influenza - Avian,H5N8 HPAI,"domestic, duck",4400,255,255,0,0,,,,
221559,OIE,43.704167,-0.234722,Europe,France,Midi-Pyrenees,Barcelone Du Gers,Exact,17/12/2016,21/12/2016,Confirmed,Influenza - Avian,H5N8 HPAI,"domestic, duck",0,0,0,0,0,,,,
223046,OIE,43.379722,0.406944,Europe,France,Midi-Pyrenees,Barcugnan,Exact,19/01/2017,27/01/2017,Confirmed,Influenza - Avian,H5N8 HPAI,"wild, buzzard",,1,1,0,0,,,,
221862,OIE,43.379722,0.406944,Europe,France,Midi-Pyrenees,Barcugnan,Exact,22/12/2016,30/12/2016,Confirmed,Influenza - Avian,H5N8 HPAI,"domestic, duck",8000,0,0,0,0,,,,
224782,OIE,52.97,13.87,Europe,Germany,Brandenburg,Barnim,Unknown,2/3/2017,2/3/2017,Confirmed,Influenza - Avian,H5N8 HPAI,"wild, unspecified bird",,1,1,0,0,,,,
224909,OIE,45.4,-91.846,Americas,United States Of America,Wisconsin,Barron County,Unknown,2/3/2017,6/3/2017,Confirmed,Influenza - Avian,H5N2 LPAI,"domestic, turkey",84000,0,0,0,0,,,,
221945,OIE,43.510955,0.30315,Europe,France,Midi-Pyrenees,Bars,Exact,31/12/2016,9/1/2017,Confirmed,Influenza - Avian,H5N8 HPAI,"domestic, duck",5800,0,0,0,0,,,,
221564,OIE,43.510955,0.30315,Europe,France,Midi-Pyrenees,Bars,Exact,18/12/2016,21/12/2016,Confirmed,Influenza - Avian,H5N1 LPAI,"domestic, duck",9500,0,0,0,0,,,,
221562,OIE,43.510955,0.30315,Europe,France,Midi-Pyrenees,Bars,Exact,18/12/2016,21/12/2016,Confirmed,Influenza - Avian,H5N8 HPAI,"domestic, duck",5900,0,0,0,0,,,,
211278,National authorities,29.980221,31.291361,Africa,Egypt,Cairo,Basatin,Centroid Admin2,4/3/2016,10/3/2016,Confirmed,Influenza - Avian,H5N1 HPAI,,,,,,,,,1,
223787,OIE,9.8717,8.7293,Africa,Nigeria,Plateau,Bassa,Exact,14/02/2017,21/02/2017,Confirmed,Influenza - Avian,H5N1 HPAI,"domestic, chicken",1500,10,10,1490,0,,,,
210627,OIE,9.8717,8.7293,Africa,Nigeria,Plateau,Bassa,Exact,11/2/2016,15/02/2016,Confirmed,Influenza - Avian,H5N1 HPAI,"domestic, chicken",6884,200,200,6684,0,,,,
206777,OIE,5.686376,-3.194947,Africa,Ca´Te D'Ivoire,Comoe,"Bassam, Modeste, Aboisso",Centroid Admin2,17/07/2015,25/08/2015,Confirmed,Influenza - Avian,H5N1 HPAI,"domestic, chicken",27652,20286,20286,0,7366,,,,
228841,National authorities,50.762428,5.62094,Europe,Belgium,Region Wallonne,Bassenge,Unknown,5/7/2017,5/7/2017,Confirmed,Influenza - Avian,H5N8 HPAI,"domestic, unspecified bird",19,5,5,14,,,0,,
223026,OIE,43.552778,-0.621667,Europe,France,Aquitaine,Bassercles,Exact,12/1/2017,27/01/2017,Confirmed,Influenza - Avian,H5N8 HPAI,"domestic, duck",,,,,,,,,
223527,OIE,43.4575,-0.074167,Europe,France,Aquitaine,Bassillon Vauze,Exact,6/2/2017,10/2/2017,Confirmed,Influenza - Avian,H5N8 HPAI,"domestic, unspecified bird",,,,,,,,,
225548,OIE,43.3486,-0.769167,Europe,France,Aquitaine,Bastennes,Exact,9/3/2017,17/03/2017,Confirmed,Influenza - Avian,H5N2 LPAI,"environmental sample, unspecified bird",8000,0,0,8000,0,,,,
225056,OIE,43.3486,-0.769167,Europe,France,Aquitaine,Bastennes,Exact,23/02/2017,10/3/2017,Confirmed,Influenza - Avian,H5N8 HPAI,"domestic, duck",332,0,0,332,0,,,,
224225,OIE,43.3486,-0.769167,Europe,France,Aquitaine,Bastennes,Exact,16/02/2017,24/02/2017,Confirmed,Influenza - Avian,H5N8 HPAI,"domestic, duck",0,0,0,0,0,,,,
224182,OIE,43.3486,-0.769167,Europe,France,Aquitaine,Bastennes,Exact,13/02/2017,24/02/2017,Confirmed,Influenza - Avian,H5N8 HPAI,"domestic, duck",0,0,0,0,0,,,,
224181,OIE,43.3486,-0.769167,Europe,France,Aquitaine,Bastennes,Exact,13/02/2017,24/02/2017,Confirmed,Influenza - Avian,H5N8 HPAI,"domestic, duck",0,0,0,0,0,,,,
211496,OIE,12.2638,7.297,Africa,Nigeria,Katsina,Batagarawa,Exact,8/3/2016,20/03/2016,Confirmed,Influenza - Avian,H5N1 HPAI,"domestic, chicken",51303,1364,1364,49939,0,,,,
210721,OIE,12.2638,7.297,Africa,Nigeria,Katsina,Batagarawa,Exact,10/2/2016,17/02/2016,Confirmed,Influenza - Avian,H5N1 HPAI,"domestic, chicken",5000,60,60,4940,0,,,,
222660,OIE,43.6597,-0.4575,Europe,France,Aquitaine,Bats,Unknown,12/1/2017,20/01/2017,Confirmed,Influenza - Avian,H5N8 HPAI,"domestic, duck",0,0,0,0,0,,,,
222659,OIE,43.6597,-0.4575,Europe,France,Aquitaine,Bats,Unknown,12/1/2017,20/01/2017,Confirmed,Influenza - Avian,H5N8 HPAI,"domestic, unspecified bird",0,0,0,0,0,,,,
216726,National authorities,-4.147595,104.145,Asia,Indonesia,Sumatera Selatan,Baturaja,Exact,21/12/2015,21/12/2015,Confirmed,Influenza - Avian,H5N1 HPAI,"domestic, chicken",,,700,,,,,,
221551,OIE,10.2489,9.457,Africa,Nigeria,Bauchi,Bauchi,Centroid Locality,12/1/2017,6/2/2017,Confirmed,Influenza - Avian,H5N1 HPAI,"domestic, chicken",43,3,3,40,,,0,,
221550,OIE,10.2489,9.457,Africa,Nigeria,Bauchi,Bauchi,Centroid Locality,10/1/2017,6/2/2017,Confirmed,Influenza - Avian,H5N1 HPAI,"domestic, chicken",120,6,6,114,,,0,,
207494,OIE,10.2489,9.457,Africa,Nigeria,Bauchi,Bauchi,Exact,6/2/2015,19/09/2015,Confirmed,Influenza - Avian,H5N1 HPAI,"domestic, chicken",3030,652,652,2378,0,,,,
211092,OIE,10.2489,9.457,Africa,Nigeria,Bauchi,Bauchi,Exact,1/3/2016,4/3/2016,Confirmed,Influenza - Avian,H5N1 HPAI,"domestic, chicken",248,5,5,243,0,,,,
224074,OIE,51.21,14.43,Europe,Germany,Sachsen,Bautzen,Exact,9/2/2017,10/2/2017,Confirmed,Influenza - Avian,H5N8 HPAI,"wild, unspecified bird",,3,3,0,0,,,,
230174,National authorities,29.09197,31.07445,Africa,Egypt,Beni Suef,Bayad El Arab,Centroid Admin2,10/6/2017,11/6/2017,Confirmed,Influenza - Avian,H5N1 HPAI,"domestic, turkey",,3000,,3000,,,,,
212944,FAO Field Officer,5.295661,10.451634,Africa,Cameroon,Ouest,Bayangam,Exact,31/05/2016,31/05/2016,Confirmed,Influenza - Avian,H5N1 HPAI,"domestic, unspecified bird, domestic, swine",12020,1500,1500,10520,,,,,
223061,OIE,11.11,105.7,Asia,Cambodia,Svay Rieng,Bayarb,Exact,25/01/2017,31/01/2017,Confirmed,Influenza - Avian,H5N1 HPAI,"domestic, unspecified bird",390,68,68,322,0,,0,,
220086,OIE,47.86,11.33,Europe,Germany,Bayern,Bayern,Exact,25/11/2016,2/12/2016,Confirmed,Influenza - Avian,H5N8 HPAI,"wild, wild duck",,1,1,0,0,,,,
208254,National authorities,29.647562,91.073396,Asia,China,Xizang Zizhiqu,Bayi Market,Exact,31/12/2014,2/11/2015,Confirmed,Influenza - Avian,H5N1 HPAI,"domestic, chicken",,1,,,,,,,
208253,National authorities,29.647562,91.073396,Asia,China,Xizang Zizhiqu,Bayi Market,Exact,31/12/2014,2/11/2015,Confirmed,Influenza - Avian,H5N1 HPAI,"domestic, chicken",,1,,,,,,,
208349,National authorities,29.647562,91.073396,Asia,China,Xizang Zizhiqu,Bayi Market,Exact,30/09/2014,9/11/2015,Confirmed,Influenza - Avian,"H5N6 HPAI, H5N1 HPAI","domestic, chicken, domestic, duck",,2,,,,,,,
209398,OIE,43.352311,0.103703,Europe,France,Midi-Pyrenees,Bazillac,Exact,18/12/2015,24/12/2015,Confirmed,Influenza - Avian,H5N1 HPAI,"domestic, unspecified bird",5600,3,3,0,0,,,,
210742,OIE,22.390814,113.918663,Asia,"Hong Kong, Sar",Administrative Unit Not Available,Beach Near Tin Hau Temple,Exact,14/02/2016,19/02/2016,Confirmed,Influenza - Avian,H5N6 HPAI,"domestic, unspecified bird",,4,4,0,0,,,,
223992,OIE,43.586667,0.090556,Europe,France,Midi-Pyrenees,Beaumarches,Unknown,6/2/2017,17/02/2017,Confirmed,Influenza - Avian,H5N1 LPAI,"domestic, duck",0,0,0,0,0,,,,
220096,OIE,43.586667,0.090556,Europe,France,Midi-Pyrenees,Beaumarches,Exact,1/12/2016,2/12/2016,Confirmed,Influenza - Avian,H5N8 HPAI,"domestic, chicken",690,100,100,590,0,,,,
219983,OIE,43.586667,0.090556,Europe,France,Midi-Pyrenees,Beaumarches,Exact,1/12/2016,2/12/2016,Confirmed,Influenza - Avian,H5N8 HPAI,"domestic, duck",690,100,100,590,0,,0,,
210871,OIE,44.986799,0.652392,Europe,France,Aquitaine,Beauregard Et Bassac,Exact,16/02/2016,23/02/2016,Confirmed,Influenza - Avian,H5N1 HPAI,"domestic, duck",6000,0,0,0,0,,,,
216629,National authorities,3.424713,116.976,Asia,Indonesia,Kalimantan Timur,Bebakung,Exact,19/04/2016,19/04/2016,Confirmed,Influenza - Avian,H5N1 HPAI,"domestic, chicken",,51,51,,,,,,
216638,National authorities,3.448584,117.248,Asia,Indonesia,Kalimantan Timur,Bebatu,Exact,19/04/2016,19/04/2016,Confirmed,Influenza - Avian,H5N1 HPAI,"domestic, chicken",,50,50,,,,,,
210386,OIE,11.665465,8.257631,Africa,Nigeria,Kano,Bebeji,Exact,29/01/2016,2/2/2016,Confirmed,Influenza - Avian,H5N1 HPAI,"domestic, chicken",200000,1562,1562,198438,0,,,,
222737,OIE,31.737025,34.723035,Asia,Israel,Southern District,Beer Toviyya,Unknown,8/12/2016,24/01/2017,Confirmed,Influenza - Avian,H5N8 HPAI,"wild, glossy ibis , wild, cattle egret",,2,2,0,0,,,,
222997,OIE,31.737025,34.723035,Asia,Israel,Southern District,Beer Toviyya,Exact,9/12/2016,25/12/2016,Confirmed,Influenza - Avian,H5N8 HPAI,"domestic, chicken",11000,,100,10900,0,,,,
222994,OIE,31.737025,34.723035,Asia,Israel,Southern District,Beer Toviyya,Exact,6/12/2016,25/12/2016,Confirmed,Influenza - Avian,H5N8 HPAI,"domestic, chicken",22000,2000,500,21500,0,,,,
224460,OIE,45.221902,19.60928,Europe,Serbia,Juzno-Backi,"Begecka Jama Park Prirode, Begec",Exact,8/2/2017,1/3/2017,Confirmed,Influenza - Avian,H5N8 HPAI,"wild,mallard,wild,grey heron,wild,great cormorant (phalacrocorax carbo))",,1,1,0,0,,,,
223552,National authorities,42.38455,24.796115,Europe,Bulgaria,Plovdiv,Begovo,Centroid Admin2,6/2/2017,14/02/2017,Confirmed,Influenza - Avian,H5N8 HPAI,"domestic, duck",,1250,,,,,0,,
228331,OIE,23.584066,120.262667,Asia,Taiwan (Province Of China),Taiwan Sheng,Beigang Township,Exact,25/05/2017,7/6/2017,Confirmed,Influenza - Avian,H5N2 HPAI,"domestic, chicken",8248,3300,3300,4948,0,,,,
225863,National authorities,21.44783,109.1587,Asia,China,Guangxi Zhuangzu Zizhiqu,Beihai,Exact,,31/03/2017,Confirmed,Influenza - Avian,H7N9 LPAI,"environmental sample, unspecified env. sample",,1,,,,,,,
225862,National authorities,21.44783,109.1587,Asia,China,Guangxi Zhuangzu Zizhiqu,Beihai,Exact,,31/03/2017,Confirmed,Influenza - Avian,H7N9 LPAI,"environmental sample, unspecified env. sample",,2,,,,,,,
225861,National authorities,21.44783,109.1587,Asia,China,Guangxi Zhuangzu Zizhiqu,Beihai,Exact,,31/03/2017,Confirmed,Influenza - Avian,H7N9 LPAI,"environmental sample, unspecified env. sample",,1,,,,,,,
227135,National authorities,33.23,116.062,Asia,China,Anhui Sheng,Beijing in Anhui,Centroid Admin2,15/04/2017,28/04/2017,Confirmed,Influenza - Avian,H7N9 LPAI,,,,,,,,,1,
227134,National authorities,33.23,116.062,Asia,China,Anhui Sheng,Beijing in Anhui,Centroid Admin2,8/4/2017,28/04/2017,Confirmed,Influenza - Avian,H7N9 LPAI,,,,,,,,,1,
223718,National authorities,40.2669,116.59384,Asia,China,Beijing Shi,Beijing,Centroid Admin1,1/2/2017,14/02/2017,Confirmed,Influenza - Avian,H7N9 LPAI,,,,,,,Male,48,1,
223671,National authorities,40.2669,116.59384,Asia,China,Beijing Shi,Beijing,Unknown,1/2/2017,13/02/2017,Confirmed,Influenza - Avian,H7N9 LPAI,,,,,,,Male,67,1,
227891,National authorities,40.2669,116.59384,Asia,China,Beijing Shi,Beijing,Centroid Admin1,2/5/2017,12/5/2017,Confirmed,Influenza - Avian,H7N9 LPAI,,,,,,,,,1,
227895,National authorities,40.2669,116.59384,Asia,China,Beijing Shi,Beijing,Unknown,2/5/2017,12/5/2017,Confirmed,Influenza - Avian,H7N9 LPAI,,,,,,,,,1,1
228608,National authorities,40.2669,116.59384,Asia,China,Beijing Shi,Beijing,Centroid Admin1,,23/06/2017,Confirmed,Influenza - Avian,H7N9 LPAI,,,,,,,Male,57,1,
228606,National authorities,40.2669,116.59384,Asia,China,Beijing Shi,Beijing,Centroid Admin1,,23/06/2017,Confirmed,Influenza - Avian,H7N9 LPAI,,,,,,,Male,31,1,
228528,National authorities,40.2669,116.59384,Asia,China,Beijing Shi,Beijing,Centroid Admin1,,16/06/2017,Confirmed,Influenza - Avian,H7N9 LPAI,,,,,,,Male,54,1,
228413,National authorities,40.2669,116.59384,Asia,China,Beijing Shi,Beijing,Centroid Admin1,30/05/2017,13/06/2017,Confirmed,Influenza - Avian,H7N9 LPAI,,,,,,,Male,27,1,
228411,National authorities,40.2669,116.59384,Asia,China,Beijing Shi,Beijing,Centroid Admin1,27/05/2017,13/06/2017,Confirmed,Influenza - Avian,H7N9 LPAI,,,,,,,Female,55,1,
228412,National authorities,40.2669,116.59384,Asia,China,Beijing Shi,Beijing,Centroid Admin1,20/05/2017,13/06/2017,Confirmed,Influenza - Avian,H7N9 LPAI,,,,,,,Male,16,1,
226879,National authorities,40.2669,116.59384,Asia,China,Beijing Shi,Beijing,Unknown,8/4/2017,18/04/2017,Confirmed,Influenza - Avian,H7N9 LPAI,,,,,,,,,1,
226878,National authorities,40.2669,116.59384,Asia,China,Beijing Shi,Beijing,Unknown,7/4/2017,18/04/2017,Confirmed,Influenza - Avian,H7N9 LPAI,,,,,,,,,1,
226877,National authorities,40.2669,116.59384,Asia,China,Beijing Shi,Beijing,Unknown,31/03/2017,18/04/2017,Confirmed,Influenza - Avian,H7N9 LPAI,,,,,,,,,1,
226197,National authorities,40.2669,116.59384,Asia,China,Beijing Shi,Beijing,Centroid Admin1,22/03/2017,7/4/2017,Confirmed,Influenza - Avian,H7N9 LPAI,,,,,,,,,1,
214802,National authorities,40.2669,116.59384,Asia,China,Beijing Shi,Beijing,Centroid Admin1,18/07/2016,27/07/2016,Confirmed,Influenza - Avian,H7N9 LPAI,,,,,,,Male,35,1,
213222,National authorities,40.2669,116.59384,Asia,China,Beijing Shi,Beijing,Centroid Admin1,,15/06/2016,Confirmed,Influenza - Avian,H7N9 LPAI,,,,,,,,,1,
223142,National authorities,41.8,120.75,Asia,China,Liaoning Sheng,"Beipiao City, Chaoyang City",Unknown,21/01/2017,30/01/2017,Confirmed,Influenza - Avian,H7N9 LPAI,,,,,,,Male,67,,
226613,National authorities,-8.773338,120.924,Asia,Indonesia,Nusatenggara Timur,Beiwali,Exact,3/3/2017,3/3/2017,Confirmed,Influenza - Avian,H5N1 HPAI,"domestic, chicken",,,296,,,,,,
226612,National authorities,-8.773338,120.924,Asia,Indonesia,Nusatenggara Timur,Beiwali,Exact,3/3/2017,3/3/2017,Confirmed,Influenza - Avian,H5N1 HPAI,"domestic, duck",,,589,,,,,,
208849,National authorities,43.821046,87.577099,Asia,China,Xinjiang Uygur Zizhiqu,Beiyuanchun Market,Exact,31/12/2014,2/11/2015,Confirmed,Influenza - Avian,H7N9 LPAI,"domestic, chicken",,1,,,,,,,
221680,OIE,46.5884,20.9991,Europe,Hungary,Bekes,Bekes,Unknown,22/12/2016,29/12/2016,Confirmed,Influenza - Avian,H5N8 HPAI,"domestic, turkey",13000,0,0,0,0,,,,
220436,OIE,46.5884,20.9991,Europe,Hungary,Bekes,Bekes,Exact,2/12/2016,13/12/2016,Confirmed,Influenza - Avian,H5N8 HPAI,"domestic, goose",450,0,0,0,0,,,,
220424,OIE,46.5884,20.9991,Europe,Hungary,Bekes,Bekes,Exact,29/11/2016,13/12/2016,Confirmed,Influenza - Avian,H5N8 HPAI,"domestic, goose",263,0,0,0,0,,,,
227385,National authorities,30.40753,31.53105,Africa,Egypt,Shrkia,Belbies,Centroid Admin2,27/04/2017,27/04/2017,Confirmed,Influenza - Avian,H5N1 HPAI,"domestic, turkey",,10,,10,,,,,
226734,National authorities,30.40753,31.53105,Africa,Egypt,Shrkia,Belbies,Centroid Admin2,13/04/2017,15/04/2017,Confirmed,Influenza - Avian,H5N1 HPAI,"domestic, turkey",,10,,10,,,,,
213929,National authorities,30.40753,31.53105,Africa,Egypt,Shrkia,Belbies,Centroid Admin2,23/06/2016,25/06/2016,Confirmed,Influenza - Avian,H5N1 HPAI,"domestic, duck",,10,,10,,,,,
226055,National authorities,30.40753,31.53105,Africa,Egypt,Shrkia,Belbies,Centroid Admin2,23/03/2017,25/03/2017,Confirmed,Influenza - Avian,H5N1 HPAI,"domestic, duck",,10,,10,,,,,
228427,National authorities,30.40753,31.53105,Africa,Egypt,Shrkia,Belbies,Centroid Admin2,25/05/2017,28/05/2017,Confirmed,Influenza - Avian,H5N1 HPAI,"domestic, chicken",,6,,6,,,,,
221946,OIE,43.4575,0.436111,Europe,France,Midi-Pyrenees,Belloc -Saint-Clamens,Exact,31/12/2016,13/01/2017,Confirmed,Influenza - Avian,H5N8 HPAI,"domestic, duck",32000,0,0,0,0,,,,
223980,OIE,43.4575,0.436111,Europe,France,Midi-Pyrenees,Belloc -Saint-Clamens,Unknown,8/2/2017,17/02/2017,Confirmed,Influenza - Avian,H5N8 HPAI,"wild, buzzard",,,1,0,0,,,,
221151,EC,42.2327,24.79368,Europe,Bulgaria,Plovdiv,Belozem,Centroid Admin1,27/12/2016,29/12/2016,Confirmed,Influenza - Avian,H5N8 HPAI,"domestic, duck",,16320,,16320,,,,,
221148,EC,42.2327,24.79368,Europe,Bulgaria,Plovdiv,Belozem,Centroid Admin2,23/12/2016,28/12/2016,Confirmed,Influenza - Avian,H5N8 HPAI,"domestic, duck",,15000,,15000,,,0,,
223154,OIE,51.888,5.894,Europe,Netherlands,Gelderland,Bemmel,Exact,19/01/2017,1/2/2017,Confirmed,Influenza - Avian,H5N8 HPAI,"wild, anatidae",,66,66,14,0,,,,
223008,OIE,31.951338,34.920755,Asia,Israel,Central District,Ben Shemen (Moshav),Exact,24/12/2016,25/12/2016,Confirmed,Influenza - Avian,H5N8 HPAI,"wild, buzzard",,1,1,0,0,,,,
221521,FAO Field Officer,-6.161395,106.438,Asia,Indonesia,Banten,Benda,Exact,21/12/2016,21/12/2016,Confirmed,Influenza - Avian,H5N1 HPAI,"domestic, duck",,,1900,,,,,,
225067,OIE,43.6433,-1.033611,Europe,France,Aquitaine,Benesse Les Dax,Exact,1/3/2017,10/3/2017,Confirmed,Influenza - Avian,H5N8 HPAI,"domestic, duck",0,0,0,0,0,,,,
224108,OIE,43.6433,-1.033611,Europe,France,Aquitaine,Benesse Les Dax,Unknown,8/2/2017,17/02/2017,Confirmed,Influenza - Avian,H5N8 HPAI,"domestic, duck",6000,0,0,0,0,,,,
228136,National authorities,33.139061,117.415625,Asia,China,Anhui Sheng,Bengbu,Centroid Admin2,12/5/2017,2/6/2017,Confirmed,Influenza - Avian,H7N9 LPAI,,,,,,,Male,44,1,
228439,National authorities,28.51547,30.74814,Africa,Egypt,Menia,Beni Mazar,Centroid Admin2,9/6/2017,10/6/2017,Confirmed,Influenza - Avian,H5N1 HPAI,"domestic, duck",,10,,10,,,,,
228426,National authorities,28.51547,30.74814,Africa,Egypt,Menia,Beni Mazar,Centroid Admin2,26/05/2017,27/05/2017,Confirmed,Influenza - Avian,H5N1 HPAI,"domestic, chicken",,10,,10,,,,,
213709,National authorities,28.51547,30.74814,Africa,Egypt,Menia,Beni Mazar,Centroid Admin2,23/06/2016,24/06/2016,Confirmed,Influenza - Avian,H5N1 HPAI,"domestic, duck, domestic, turkey, domestic, unspecified bird",,16,,16,,,,,
218749,National authorities,-8.800791,115.210545,Asia,Indonesia,Bali,Benoa,Exact,26/09/2016,26/09/2016,Confirmed,Influenza - Avian,H5N1 HPAI,"domestic, chicken",,,6,,,,,,
223339,OIE,43.830833,-0.500556,Europe,France,Aquitaine,Benquet,Exact,20/01/2017,3/2/2017,Confirmed,Influenza - Avian,H5N8 HPAI,"domestic, unspecified bird",0,0,0,0,0,,,,
223338,OIE,43.830833,-0.500556,Europe,France,Aquitaine,Benquet,Exact,19/01/2017,3/2/2017,Confirmed,Influenza - Avian,H5N8 HPAI,"domestic, unspecified bird",0,0,0,0,0,,,,
223036,OIE,43.830833,-0.500556,Europe,France,Aquitaine,Benquet,Exact,19/01/2017,27/01/2017,Confirmed,Influenza - Avian,H5N8 HPAI,"domestic, duck",12000,0,0,12000,0,,,,
226629,National authorities,-6.133795,120.498294,Asia,Indonesia,Sulawesi Selatan,Benteng Utara,Centroid Admin2,8/3/2017,8/3/2017,Confirmed,Influenza - Avian,H5N1 HPAI,"domestic, chicken",,,5,,,,0,,
224230,OIE,43.668265,-0.722688,Europe,France,Aquitaine,Bergouey,Exact,16/02/2017,24/02/2017,Confirmed,Influenza - Avian,H5N8 HPAI,"domestic, duck",0,0,0,0,0,,,,
224191,OIE,43.668265,-0.722688,Europe,France,Aquitaine,Bergouey,Exact,14/02/2017,24/02/2017,Confirmed,Influenza - Avian,H5N8 HPAI,"domestic, duck",0,0,0,0,0,,,,
225049,OIE,43.668265,-0.722688,Europe,France,Aquitaine,Bergouey,Exact,13/02/2017,10/3/2017,Confirmed,Influenza - Avian,H5N8 HPAI,"domestic, duck",0,0,0,0,0,,,,
209902,OIE,43.668265,-0.722688,Europe,France,Aquitaine,Bergouey,Exact,14/12/2015,22/01/2016,Confirmed,Influenza - Avian,H5N3 LPAI,"domestic, duck",3800,0,0,3000,800,,,,
209296,OIE,43.668265,-0.722688,Europe,France,Aquitaine,Bergouey,Exact,9/12/2015,15/12/2015,Confirmed,Influenza - Avian,H5N9 HPAI,"domestic, duck",500,0,0,0,0,,,,
219260,OIE,51.9525,4.4783,Europe,Netherlands,Zuid-Holland,Bergplas,Unknown,14/11/2016,18/11/2016,Confirmed,Influenza - Avian,H5N8 HPAI,"wild, tufted duck",,1,1,0,0,,,,
224761,OIE,49.54,8.56,Europe,Germany,Hessen,Bergstraaye,Unknown,20/02/2017,28/02/2017,Confirmed,Influenza - Avian,H5N8 HPAI,"wild, grey heron",,1,1,0,0,,,,
226718,National authorities,30.80934,30.932,Africa,Egypt,Gharbia,Berma,Centroid Admin2,6/4/2017,8/4/2017,Confirmed,Influenza - Avian,H5N1 HPAI,"domestic, duck",,2000,,2000,,,,,
226717,National authorities,30.80934,30.932,Africa,Egypt,Gharbia,Berma,Centroid Admin2,6/4/2017,8/4/2017,Confirmed,Influenza - Avian,H5N1 HPAI,"domestic, duck",,4000,,4000,,,,,
213343,National authorities,30.80934,30.932,Africa,Egypt,Gharbia,Berma,Centroid Admin2,2/6/2016,3/6/2016,Confirmed,Influenza - Avian,H5N1 HPAI,"domestic, duck",,6000,,6000,,,,,
223039,OIE,43.3547,0.3181,Europe,France,Midi-Pyrenees,Bernadets Debat,Exact,20/01/2017,27/01/2017,Confirmed,Influenza - Avian,H5N8 HPAI,"domestic, chicken",8800,0,0,8800,0,,,,
224411,OIE,50.6397,15.9866,Europe,Czech Republic,Vychodocesky,Bernartice,Exact,23/02/2017,27/02/2017,Confirmed,Influenza - Avian,H5N8 HPAI,"domestic, unspecified bird",20,6,6,14,0,,,,
224410,OIE,50.6397,15.9866,Europe,Czech Republic,Vychodocesky,Bernartice,Exact,23/02/2017,27/02/2017,Confirmed,Influenza - Avian,H5N8 HPAI,"domestic, chicken",8,5,5,3,0,,,,
224345,OIE,50.6397,15.9866,Europe,Czech Republic,Vychodocesky,Bernartice,Exact,23/02/2017,27/02/2017,Confirmed,Influenza - Avian,H5N8 HPAI,"domestic, chicken",20,6,6,14,0,,0,,
224344,OIE,50.6397,15.9866,Europe,Czech Republic,Vychodocesky,Bernartice,Exact,23/02/2017,27/02/2017,Confirmed,Influenza - Avian,H5N8 HPAI,"domestic, chicken",8,5,5,3,0,,0,,
220928,OIE,43.670556,-0.220556,Europe,France,Midi-Pyrenees,Bernede,Exact,19/12/2016,20/12/2016,Confirmed,Influenza - Avian,H5N8 HPAI,"domestic, duck",1144,0,0,0,0,,,,
223983,OIE,48.200988,17.318498,Europe,Slovakia,Bratislava,Bernolakovo,Unknown,7/2/2017,13/02/2017,Confirmed,Influenza - Avian,H5N8 HPAI,"wild, mallard",,1,1,0,0,,,,
224063,OIE,51.37,14.06,Europe,Germany,Sachsen,Bernsdorf,Exact,6/2/2017,10/2/2017,Confirmed,Influenza - Avian,H5N8 HPAI,"wild, swan",3,1,1,2,0,,,,
224502,OIE,46.1892,17.1172,Europe,Hungary,Somogy,Berzence,Exact,13/01/2017,28/02/2017,Confirmed,Influenza - Avian,H5N8 HPAI,"wild,mute swan (cygnus olor))",,1,1,0,0,,,,
224561,OIE,41.9729951,2.6846329,Europe,Spain,Catalua±A/Catalunya,Bescano,Exact,18/02/2017,3/3/2017,Confirmed,Influenza - Avian,H5N8 HPAI,"domestic, unspecified bird",450,4,0,450,0,,0,,
224005,OIE,32.350819,34.926951,Asia,Israel,Central District,Bet Halewi,Unknown,28/01/2017,16/02/2017,Confirmed,Influenza - Avian,H5N8 HPAI,"domestic, duck",1260,,15,1245,0,,,,
224008,OIE,32.377728,34.868427,Asia,Israel,Central District,Bet Herut,Unknown,12/2/2017,16/02/2017,Confirmed,Influenza - Avian,H5N8 HPAI,"domestic, turkey",3000,,500,2500,0,,,,
228340,OIE,43.5481,23.195,Europe,Bulgaria,Montana,Bezdenitsa,Exact,27/03/2017,5/6/2017,Confirmed,Influenza - Avian,H5N8 HPAI,"domestic, unspecified bird",56,27,27,29,0,,,,
225909,National authorities,43.5481,23.195,Europe,Bulgaria,Montana,Bezdenitsa ,Exact,21/03/2017,3/4/2017,Confirmed,Influenza - Avian,H5N8 HPAI,"domestic, unspecified bird",56,27,,,,,0,,
221926,OIE,43.387805,0.607914,Europe,France,Midi-Pyrenees,Bezues Bajou,Exact,22/12/2016,9/1/2017,Confirmed,Influenza - Avian,H5N8 HPAI,"domestic, duck",90,0,0,90,0,,,,
220828,OIE,52.649728,15.252786,Europe,Poland,Lubuskie,Bialoblocie,Exact,13/12/2016,16/12/2016,Confirmed,Influenza - Avian,H5N8 HPAI,"domestic, unspecified bird",1000,329,329,671,0,,,,
225477,OIE,43.4842,-1.14,Europe,France,Aquitaine,Bidache,Exact,6/3/2017,17/03/2017,Confirmed,Influenza - Avian,H5N8 HPAI,"domestic, unspecified env. sample",166,,27,139,,,,,
