Id,source,latitude,longitude,region,country,admin1,localityName,localityQuality,observationDate,reportingDate,status,disease,serotypes,speciesDescription,sumAtRisk,sumCases,sumDeaths,sumDestroyed,sumSlaughtered,humansGenderDesc,humansAge,humansAffected,humansDeaths
229252,OIE,23.71,120.25,Asia,Taiwan (Province Of China),Taiwan Sheng, Dongshi Township ,Exact,7/6/2017,7/11/2017,Confirmed,Influenza - Avian,H5N2 HPAI,"domestic, chicken",20500,365,365,17435,,,0,,
226997,National authorities,29.27,120.22,Asia,China,Zhejiang Sheng, Dongyang City Of Jinhua City,Unknown,,12/31/2016,Confirmed,Influenza - Avian,H7N9 LPAI,"environmental sample, unspecified bird",,31,,,,,,,
221119,OIE,44.45,84.99,Asia,China,Xinjiang Uygur Zizhiqu, Ili Kazak Autonomous Prefecture,Exact,12/17/2016,12/28/2016,Confirmed,Influenza - Avian,H5N6 HPAI,"domestic, unspecified bird",66619,16000,10716,55903,0,,0,,
219103,OIE,47.65,9.17,Europe,Switzerland,Thurgau, Kreuzlingen,Unknown,11/7/2016,11/16/2016,Confirmed,Influenza - Avian,H5N8 HPAI,"wild, unspecified bird",,1,1,0,0,,0,,
218538,OIE,9.25,76.50,Asia,India,Kerala, Ramankary ,Unknown,10/23/2016,10/26/2016,Confirmed,Influenza - Avian,H5N8 HPAI,"wild, unspecified bird",77848,15,15,6483,,,0,,
224050,OIE,41.97,2.72,Europe,Spain,Catalua±A/Catalunya, Sant Gregori,Exact,2/18/2017,2/23/2017,Confirmed,Influenza - Avian,H5N8 HPAI,"domestic, duck",17800,723,723,17077,0,,0,,
218742,National authorities,53.67,13.67,Europe,Germany,Mecklenburg-Vorpommern, Schweriner Sees,Unknown,,11/11/2016,Confirmed,Influenza - Avian,H5N8 HPAI,"wild, heron",,,,,,,0,,
208823,FAO officer,-6.82,108.29,Asia,Indonesia,Jawa Barat, Sukahaji,Exact,9/9/2015,9/9/2015,Confirmed,Influenza - Avian,H5N1 HPAI,"domestic, chicken",,,55,,,,,,
227791,OIE,56.57,47.92,Europe,Russian Federation,Mariy-El Rep., Suslonger ,Centroid Admin1,5/11/2017,5/17/2017,Confirmed,Influenza - Avian,H5N8 HPAI,"domestic, unspecified bird",40,40,40,,,,0,,
229243,OIE,50.46,4.52,Europe,Belgium,Region Wallonne, Wangenies ,Unknown,6/29/2017,7/12/2017,Confirmed,Influenza - Avian,H5N8 HPAI,"domestic, unspecified bird",78,12,12,66,,,0,,
229250,OIE,25.03,121.49,Asia,Taiwan (Province Of China),Taiwan Sheng, Wanhua District,Exact,7/1/2017,7/11/2017,Confirmed,Influenza - Avian,H5N2 HPAI,"domestic, chicken",42,,0,42,,,0,,
229248,OIE,22.74,120.54,Asia,Taiwan (Province Of China),Taiwan Sheng, Yanpu Township ,Exact,6/29/2017,7/11/2017,Confirmed,Influenza - Avian,"H5N8 HPAI, H5N2 HPAI","domestic, duck",2732,,0,2732,,,0,0,0
221893,National authorities,47.84,40.05,Europe,Russian Federation,Rostovskaya Oblast," Yevrodon 10, Krasnosulinsky ",Exact,12/27/2016,12/30/2016,Confirmed,Influenza - Avian,H5 HPAI,"domestic, turkey",161368,755,755,160613,,,0,,
208998,OIE,22.68,120.56,Asia,Taiwan (Province Of China),Taiwan Sheng,"	Changzhi Township",Exact,11/23/2015,12/8/2015,Confirmed,Influenza - Avian,H5N2 HPAI,"domestic, chicken",21000,10440,10440,10560,0,,,,
224420,OIE,43.80,28.59,Europe,Romania,Constanta,2 Mai,Exact,2/20/2017,2/28/2017,Confirmed,Influenza - Avian,H5N8 HPAI,"wild, whooper swan",,3,3,0,0,,,,
227674,National authorities,55.50,49.59,Europe,Russian Federation,Tatarstan Rep.,"25 October Village, Laishevsky District",Unknown,5/3/2017,5/10/2017,Confirmed,Influenza - Avian,H5N8 HPAI,"domestic, unspecified bird",447800,15000,5202,,,,0,,
209416,OIE,5.59,-0.19,Africa,Ghana,Greater Accra,37 Military Hospital Residence,Exact,11/30/2015,12/25/2015,Confirmed,Influenza - Avian,H5N1 HPAI,"domestic, chicken",40,7,7,33,0,,,,
209415,OIE,5.59,-0.19,Africa,Ghana,Greater Accra,37 Military Hospital Residence,Exact,11/30/2015,12/25/2015,Confirmed,Influenza - Avian,H5N1 HPAI,"domestic, chicken",40,7,7,33,0,,,,
209496,OIE,22.34,114.20,Asia,"Hong Kong, Sar",Administrative Unit Not Available,60 Fung Tak Road,Exact,12/31/2015,1/5/2016,Confirmed,Influenza - Avian,H5N6 HPAI,"wild, great egret",,1,1,0,0,,,,
220149,OIE,56.50,10.80,Europe,Denmark,Aarhus,Aarhus,Centroid Locality,11/17/2016,12/6/2016,Confirmed,Influenza - Avian,H5N8 HPAI,"wild,great black-backed gull (larus marinus))",,1,1,0,0,,0,,
209823,OIE,6.25,7.97,Africa,Nigeria,Ebonyi,Abakaliki,Exact,1/12/2016,1/19/2016,Confirmed,Influenza - Avian,H5N1 HPAI,"domestic, chicken",250,75,75,175,0,,,,
209208,National authorities,25.85,32.79,Africa,Egypt,Qena,Abasa,Centroid Admin2,12/3/2015,12/5/2015,Confirmed,Influenza - Avian,H5N1 HPAI,"domestic, duck",,10,,10,,,,,
225292,National authorities,25.85,32.79,Africa,Egypt,Qena,Abasa,Centroid Admin2,3/16/2017,3/17/2017,Confirmed,Influenza - Avian,H5N1 HPAI,"domestic, duck",,2000,,2000,,,,,
227141,National authorities,31.90,102.22,Asia,China,Sichuan Sheng,Abba,Exact,4/15/2017,4/28/2017,Confirmed,Influenza - Avian,H7N9 LPAI,,,,,,,,,1,
227628,National authorities,31.90,102.22,Asia,China,Sichuan Sheng,Abba,Unknown,4/26/2017,5/5/2017,Confirmed,Influenza - Avian,H7N9 LPAI,,,,,,,,,1,
227624,National authorities,31.90,102.22,Asia,China,Sichuan Sheng,Abba,Unknown,4/23/2017,5/5/2017,Confirmed,Influenza - Avian,H7N9 LPAI,,,,,,,,,1,1
227625,National authorities,31.90,102.22,Asia,China,Sichuan Sheng,Abba,Unknown,4/20/2017,5/5/2017,Confirmed,Influenza - Avian,H7N9 LPAI,,,,,,,,,1,1
220770,OIE,53.02,5.57,Europe,Netherlands,Friesland,Abbega,Exact,12/12/2016,12/14/2016,Confirmed,Influenza - Avian,H5N8 HPAI,"domestic, chicken",59439,500,500,58939,0,,,,
221690,OIE,50.65,-2.60,Europe,U.K. Of Great Britain And Northern Ireland,England,Abbotsbury,Unknown,12/26/2016,1/9/2017,Confirmed,Influenza - Avian,H5N8 HPAI,"wild, swan",,9,9,0,0,,,,
207614,OIE,5.48,7.46,Africa,Nigeria,Abia,Abia,Exact,9/21/2015,9/28/2015,Confirmed,Influenza - Avian,H5N1 HPAI,"domestic, chicken",3300,495,495,2805,0,,,,
217434,OIE,5.14,6.41,Africa,Nigeria,Bayelsa,Abiokpor,Exact,8/30/2016,10/4/2016,Confirmed,Influenza - Avian,H5N1 HPAI,"domestic, unspecified bird",2000,1300,1300,700,0,,0,,
217624,OIE,5.64,-0.33,Africa,Ghana,Greater Accra,Ablekuma,Unknown,9/11/2016,10/8/2016,Confirmed,Influenza - Avian,H5N1 HPAI,"domestic, unspecified bird",571,419,419,152,0,,,,
206609,OIE,5.64,-0.33,Africa,Ghana,Greater Accra,Ablekuma,Centroid Admin2,7/31/2015,8/14/2015,Confirmed,Influenza - Avian,H5N1 HPAI,"domestic, unspecified bird, domestic, chicken, domestic, duck",706,512,194,512,0,,,,
211860,FAO Field Officer,5.64,-0.33,Africa,Ghana,Greater Accra,Ablekuma,Centroid Admin2,4/15/2016,4/19/2016,Confirmed,Influenza - Avian,H5N1 HPAI,"domestic, chicken",1746,393,393,1353,0,,,,
214916,OIE,5.42,-4.02,Africa,Ca´Te D'Ivoire,District Autonome De Abidjan,Abobo Main Market,Exact,3/12/2016,7/27/2016,Confirmed,Influenza - Avian,H5N1 HPAI,"domestic, chicken",200,1,0,1,0,,,,
230177,National authorities,30.43,32.18,Africa,Egypt,Ismailia,Aboswear,Centroid Admin2,6/18/2017,6/18/2017,Confirmed,Influenza - Avian,H5N1 HPAI,"domestic, duck",,23,,23,,,,,
228432,National authorities,30.43,32.18,Africa,Egypt,Ismailia,Aboswear,Centroid Admin2,6/4/2017,6/5/2017,Confirmed,Influenza - Avian,H5N1 HPAI,"domestic, chicken",,30,,30,,,,,
228420,National authorities,30.43,32.18,Africa,Egypt,Ismailia,Aboswear,Centroid Admin2,5/21/2017,5/22/2017,Confirmed,Influenza - Avian,H5N1 HPAI,"domestic, duck",,10,,10,,,,,
210024,National authorities,26.12,32.09,Africa,Egypt,Qena,Abotesht,Centroid Admin2,1/21/2016,1/21/2016,Confirmed,Influenza - Avian,H5N1 HPAI,"domestic, chicken",,10,,10,,,,,
227816,OIE,54.57,53.42,Europe,Russian Federation,Tatarstan Rep.,Absalyamovo,Exact,5/9/2017,5/17/2017,Confirmed,Influenza - Avian,H5N8 HPAI,"domestic, unspecified bird",350,350,330,20,0,,,,
226046,National authorities,30.77,31.12,Africa,Egypt,Gharbia,Abu Alaam,Centroid Admin2,3/21/2017,3/23/2017,Confirmed,Influenza - Avian,H5N1 HPAI,"domestic, chicken",,55,,55,,,,,
222419,National authorities,30.42,31.93,Africa,Egypt,Ismailia,Abu Ashour,Centroid Locality,1/18/2017,1/20/2017,Confirmed,Influenza - Avian,H5N1 HPAI,"domestic, duck",,65,,65,,,,,
217333,National authorities,23.77,53.71,Asia,United Arab Emirates,Abu Dhabi,Abu Dhabi,Centroid Admin1,,10/4/2016,Confirmed,Influenza - Avian,H9N2 LPAI,"domestic, quail",7,,,,,,0,,
225275,National authorities,30.73,31.56,Africa,Egypt,Shrkia,Abu Gabr,Centroid Admin2,3/1/2017,3/3/2017,Confirmed,Influenza - Avian,H5N1 HPAI,"domestic, chicken",,15,,15,,,,,
209713,National authorities,26.12,32.09,Africa,Egypt,Qena,Abu Shosha,Centroid Admin2,1/8/2016,1/9/2016,Confirmed,Influenza - Avian,H5N1 HPAI,"domestic, chicken",,10,,10,,,,,
218719,National authorities,30.52,32.20,Africa,Egypt,Ismailia,Abuatwa,Centroid Admin2,10/26/2016,10/28/2016,Confirmed,Influenza - Avian,H5N1 HPAI,"domestic, chicken",,30,,30,,,,,
209853,National authorities,25.58,32.50,Africa,Egypt,Luxor,Abudaker,Centroid Admin2,1/18/2016,1/20/2016,Confirmed,Influenza - Avian,H5N1 HPAI,"domestic, chicken",,3500,,3500,,,,,
226708,National authorities,30.81,30.83,Africa,Egypt,Gharbia,Abuelgr,Centroid Admin2,4/3/2017,4/4/2017,Confirmed,Influenza - Avian,H5N1 HPAI,"domestic, duck",,5010,,5010,,,,,
227392,National authorities,30.37,32.32,Africa,Egypt,Ismailia,Abufadel,Centroid Admin2,5/2/2017,5/3/2017,Confirmed,Influenza - Avian,H5N1 HPAI,"domestic, duck",,73,,73,,,,,
207118,FAO Field Officer,8.80,7.08,Africa,Nigeria,Abuja,Abuja Municipal,Exact,9/10/2015,9/11/2015,Confirmed,Influenza - Avian,H5N1 HPAI,"domestic, chicken",800,400,400,0,0,,,,
209541,National authorities,26.14,32.45,Africa,Egypt,Qena,Abu-Manaaa,Centroid Admin2,1/4/2016,1/5/2016,Confirmed,Influenza - Avian,H5N1 HPAI,"domestic, chicken",,18,,18,,,,,
209525,National authorities,26.12,32.09,Africa,Egypt,Qena,Abushosha,Centroid Admin2,12/25/2015,12/27/2015,Confirmed,Influenza - Avian,H5N1 HPAI,"domestic, chicken",,10,,10,,,,,
212494,OIE,6.14,0.05,Africa,Ghana,Eastern,Abusia Kope,Exact,4/3/2016,4/22/2016,Confirmed,Influenza - Avian,H5N1 HPAI,"domestic, chicken",3940,2210,2210,1730,0,,,,
226723,National authorities,30.43,32.18,Africa,Egypt,Ismailia,Abusier,Centroid Admin2,4/9/2017,4/11/2017,Confirmed,Influenza - Avian,H5N1 HPAI,"domestic, duck",,10,,10,,,,,
227382,National authorities,30.43,32.18,Africa,Egypt,Ismailia,Abusour,Centroid Admin2,4/23/2017,4/24/2017,Confirmed,Influenza - Avian,H5N1 HPAI,"domestic, duck",,10,,10,,,,,
222407,National authorities,30.51,31.37,Africa,Egypt,Shrkia,Abutaula,Centroid Locality,1/5/2017,1/7/2017,Confirmed,Influenza - Avian,H5N1 HPAI,"domestic, chicken",,40,,40,,,,,
211872,OIE,20.78,-102.91,Americas,Mexico,Jalisco,Acatic,Exact,4/12/2016,4/22/2016,Confirmed,Influenza - Avian,H7N3 HPAI,"domestic, chicken",161000,1,0,0,0,,,,
211768,OIE,20.78,-102.91,Americas,Mexico,Jalisco,Acatic,Exact,3/3/2016,4/8/2016,Confirmed,Influenza - Avian,H7N3 HPAI,"domestic, unspecified bird",210516,0,0,0,0,,,,
213854,OIE,5.58,-0.24,Africa,Ghana,Greater Accra,Accra Academy Secondary School,Exact,6/11/2016,6/28/2016,Confirmed,Influenza - Avian,H5N1 HPAI,"domestic, chicken",900,812,812,88,0,,,,
211777,OIE,18.72,-97.31,Americas,Mexico,Puebla,Acultzingo,Exact,3/23/2016,4/8/2016,Confirmed,Influenza - Avian,H7N3 HPAI,"domestic, unspecified bird",28900,8000,3000,0,0,,,,
211776,OIE,18.72,-97.31,Americas,Mexico,Puebla,Acultzingo,Exact,3/23/2016,4/8/2016,Confirmed,Influenza - Avian,H7N3 HPAI,"domestic, unspecified bird",17200,5000,1000,0,0,,,,
211775,OIE,18.72,-97.31,Americas,Mexico,Puebla,Acultzingo,Exact,3/23/2016,4/8/2016,Confirmed,Influenza - Avian,H7N3 HPAI,"domestic, unspecified bird",16000,8000,3000,0,0,,,,
226522,OIE,35.77,139.80,Asia,Japan,Tookyoo,Adachi-Ku,Exact,2/3/2017,4/18/2017,Confirmed,Influenza - Avian,H5N6 HPAI,"wild, unspecified bird",,1,1,0,0,,,,
215810,OIE,6.18,1.19,Africa,Togo,Maritime,Adidogome,Exact,8/19/2016,8/24/2016,Confirmed,Influenza - Avian,H5N1 HPAI,"domestic, unspecified bird",980,950,950,30,0,,,,
228334,OIE,33.47,126.41,Asia,Republic Of Korea,Cheju-Do,Aewol-Eup,Exact,6/2/2017,6/6/2017,Confirmed,Influenza - Avian,H5N8 HPAI,"domestic, unspecified bird",1000,0,0,1000,0,,,,
213352,National authorities,30.89,31.31,Africa,Egypt,Dakahlia,Aga,Centroid Admin2,6/12/2016,6/14/2016,Confirmed,Influenza - Avian,H5N1 HPAI,"domestic, duck",,20,,20,,,,,
213339,National authorities,30.89,31.31,Africa,Egypt,Dakahlia,Aga,Centroid Admin2,5/29/2016,5/31/2016,Confirmed,Influenza - Avian,H5N1 HPAI,"domestic, chicken",,53,,53,,,,,
226496,OIE,37.83,139.23,Asia,Japan,Niigata,Agano-Cho,Exact,1/12/2017,4/18/2017,Confirmed,Influenza - Avian,H5N6 HPAI,"wild, whooper swan",,1,1,0,0,,,,
226436,OIE,37.83,139.23,Asia,Japan,Niigata,Agano-Shi,Exact,12/16/2016,4/18/2017,Confirmed,Influenza - Avian,H5N6 HPAI,"wild, anatidae",,1,1,0,0,,,,
226426,OIE,37.83,139.23,Asia,Japan,Niigata,Agano-Shi,Exact,12/14/2016,4/18/2017,Confirmed,Influenza - Avian,H5N6 HPAI,"wild, hawk",,1,1,0,0,,,,
226424,OIE,37.83,139.23,Asia,Japan,Niigata,Agano-Shi,Exact,12/13/2016,4/18/2017,Confirmed,Influenza - Avian,H5N6 HPAI,"wild, unspecified bird",,1,1,0,0,,,,
226419,OIE,37.83,139.23,Asia,Japan,Niigata,Agano-Shi,Exact,12/12/2016,4/18/2017,Confirmed,Influenza - Avian,H5N6 HPAI,"wild, tundra swan",,1,1,0,0,,,,
226410,OIE,37.83,139.23,Asia,Japan,Niigata,Agano-Shi,Exact,12/11/2016,4/18/2017,Confirmed,Influenza - Avian,H5N6 HPAI,"wild, tundra swan",,1,1,0,0,,,,
226408,OIE,37.83,139.23,Asia,Japan,Niigata,Agano-Shi,Exact,12/10/2016,4/18/2017,Confirmed,Influenza - Avian,H5N6 HPAI,"wild, tundra swan",,1,1,0,0,,,,
226407,OIE,37.83,139.23,Asia,Japan,Niigata,Agano-Shi,Exact,12/10/2016,4/18/2017,Confirmed,Influenza - Avian,H5N6 HPAI,"wild, tundra swan",,1,1,0,0,,,,
226404,OIE,37.83,139.23,Asia,Japan,Niigata,Agano-Shi,Exact,12/9/2016,4/18/2017,Confirmed,Influenza - Avian,H5N6 HPAI,"wild, tundra swan",,1,1,0,0,,,,
226400,OIE,37.83,139.23,Asia,Japan,Niigata,Agano-Shi,Exact,12/8/2016,4/18/2017,Confirmed,Influenza - Avian,H5N6 HPAI,"wild, tundra swan",,1,1,0,0,,,,
226399,OIE,37.83,139.23,Asia,Japan,Niigata,Agano-Shi,Exact,12/6/2016,4/18/2017,Confirmed,Influenza - Avian,H5N6 HPAI,"wild, tundra swan",,2,2,0,0,,,,
226394,OIE,37.83,139.23,Asia,Japan,Niigata,Agano-Shi,Exact,12/5/2016,4/18/2017,Confirmed,Influenza - Avian,H5N6 HPAI,"wild, tundra swan",,1,1,0,0,,,,
226390,OIE,37.83,139.23,Asia,Japan,Niigata,Agano-Shi,Exact,12/2/2016,4/18/2017,Confirmed,Influenza - Avian,H5N6 HPAI,"wild, tundra swan",,1,1,0,0,,,,
226382,OIE,37.83,139.23,Asia,Japan,Niigata,Agano-Shi,Exact,11/27/2016,4/18/2017,Confirmed,Influenza - Avian,H5N6 HPAI,"wild, tundra swan",,1,1,0,0,,,,
224283,OIE,46.93,26.30,Europe,Romania,Neamt,Agarcia,Exact,2/17/2017,2/23/2017,Confirmed,Influenza - Avian,H5N8 HPAI,"wild, unspecified bird",,1,1,0,0,,,,
224281,OIE,46.93,26.30,Europe,Romania,Neamt,Agarcia,Exact,2/17/2017,2/23/2017,Confirmed,Influenza - Avian,H5N8 HPAI,"wild, unspecified bird",,1,1,0,0,,,,
224277,OIE,46.93,26.30,Europe,Romania,Neamt,Agarcia,Exact,2/17/2017,2/23/2017,Confirmed,Influenza - Avian,H5N8 HPAI,"wild, unspecified bird",,1,1,0,0,,,,
224025,OIE,46.93,26.30,Europe,Romania,Neamt,Agarcia,Unknown,2/11/2017,2/16/2017,Confirmed,Influenza - Avian,H5N8 HPAI,"wild, whooper swan",,1,1,0,0,,,,
209463,OIE,6.25,6.21,Africa,Nigeria,Delta,Agbor,Exact,12/24/2015,1/2/2016,Confirmed,Influenza - Avian,H5N1 HPAI,"wild, unspecified bird",,7973,7973,0,0,,,,
222054,OIE,50.40,7.25,Europe,Germany,Rheinland-Pfalz,Ahrweiler,Unknown,12/22/2016,1/9/2017,Confirmed,Influenza - Avian,H5N8 HPAI,"wild, wild duck",,1,1,0,0,,,,
220092,OIE,48.26,10.93,Europe,Germany,Bayern,Aichach-Friedberg,Exact,11/29/2016,12/2/2016,Confirmed,Influenza - Avian,H5N8 HPAI,"wild,mute swan (cygnus olor))",,1,1,0,0,,,,
224114,OIE,43.70,0.08,Europe,France,Midi-Pyrenees,Aignan,Unknown,2/10/2017,2/17/2017,Confirmed,Influenza - Avian,H5N8 HPAI,"domestic, duck",8000,0,0,0,0,,,,
221505,FAO Field Officer,-2.00,105.26,Asia,Indonesia,Bangka Belitung,Air Belo,Exact,10/20/2016,10/20/2016,Confirmed,Influenza - Avian,H5N1 HPAI,"domestic, chicken",,,50,,,,,,
221516,FAO Field Officer,-2.22,106.00,Asia,Indonesia,Bangka Belitung,Air Buluh,Exact,11/2/2016,11/2/2016,Confirmed,Influenza - Avian,H5N1 HPAI,"domestic, chicken",,,465,,,,,,
221502,FAO Field Officer,-2.22,106.00,Asia,Indonesia,Bangka Belitung,Air Buluh,Exact,10/28/2016,10/28/2016,Confirmed,Influenza - Avian,H5N1 HPAI,"domestic, chicken",,,26,,,,,,
217086,National authorities,-2.22,106.00,Asia,Indonesia,Bangka Belitung,Air Itam,Exact,8/12/2016,8/12/2016,Confirmed,Influenza - Avian,H5N1 HPAI,"domestic, duck",,,11,,,,,,
221519,FAO Field Officer,-4.12,104.20,Asia,Indonesia,Sumatera Selatan,Air Paoh,Exact,11/6/2016,11/6/2016,Confirmed,Influenza - Avian,H5N1 HPAI,"domestic, quail",,,200,,,,,,
206620,OIE,6.46,3.22,Africa,Nigeria,Lagos,"Aiyedoto, Ojo",Exact,8/9/2015,8/17/2015,Confirmed,Influenza - Avian,H5N1 HPAI,"domestic, chicken",350,58,58,292,0,,,,
206619,OIE,6.46,3.22,Africa,Nigeria,Lagos,"Aiyedoto, Ojo",Exact,8/6/2015,8/17/2015,Confirmed,Influenza - Avian,H5N1 HPAI,"domestic, chicken",500,22,22,478,0,,,,
228444,National authorities,25.68,32.63,Africa,Egypt,Luxor,Akaltia,Centroid Admin2,3/23/2017,3/24/2017,Confirmed,Influenza - Avian,H5N8 HPAI,"domestic, duck",,9,,9,,,,,
226054,National authorities,25.68,32.63,Africa,Egypt,Luxor,Akaltia,Centroid Admin2,3/23/2017,3/24/2017,Confirmed,Influenza - Avian,H5N1 HPAI,"domestic, duck",,9,,9,,,,,
211103,National authorities,26.55,31.70,Africa,Egypt,Suhag,Akhmem District,Unknown,2/25/2016,3/7/2016,Confirmed,Influenza - Avian,H5N1 HPAI,,,,,,,,,1,
219174,National authorities,39.67,140.08,Asia,Japan,Akita,Akita,Exact,11/17/2016,11/17/2016,Confirmed,Influenza - Avian,H5N6 HPAI,"wild, black swan",,1,1,,,,0,,
219172,National authorities,39.67,140.08,Asia,Japan,Akita,Akita,Unknown,11/15/2016,11/15/2016,Confirmed,Influenza - Avian,H5N6 HPAI,"wild, black swan",,1,1,,,,0,,
226375,OIE,39.67,140.08,Asia,Japan,Akita,Akita,Exact,11/23/2016,4/18/2017,Confirmed,Influenza - Avian,H5N6 HPAI,"wild, snowy owl",,2,2,0,0,,,,
226372,OIE,39.67,140.08,Asia,Japan,Akita,Akita,Exact,11/23/2016,4/18/2017,Confirmed,Influenza - Avian,H5N6 HPAI,"wild, snowy owl",,1,1,0,0,,,,
226517,OIE,43.05,144.85,Asia,Japan,Hokkaidoo,Akkeshi-Cho,Exact,1/22/2017,4/18/2017,Confirmed,Influenza - Avian,H5N6 HPAI,"wild, whooper swan",,1,1,0,0,,,,
226510,OIE,43.05,144.85,Asia,Japan,Hokkaidoo,Akkeshi-Cho,Exact,1/18/2017,4/18/2017,Confirmed,Influenza - Avian,H5N6 HPAI,"wild, whooper swan",,1,1,0,0,,,,
226501,OIE,43.05,144.85,Asia,Japan,Hokkaidoo,Akkeshi-Cho,Exact,1/15/2017,4/18/2017,Confirmed,Influenza - Avian,H5N6 HPAI,"wild, whooper swan",,1,1,0,0,,,,
206900,FAO Field Officer,5.36,-3.94,Africa,Ca´Te D'Ivoire,District Autonome De Abidjan,Akouedo-Extension District,Exact,8/11/2015,9/1/2015,Confirmed,Influenza - Avian,H5N1 HPAI,"domestic, chicken",10,5,5,,0,,,,
207993,OIE,5.69,-0.55,Africa,Ghana,Central,Akpeteshie Camp,Exact,10/12/2015,10/22/2015,Confirmed,Influenza - Avian,H5N1 HPAI,"domestic, unspecified bird",510,34,34,476,0,,,,
221892,OIE,43.65,51.15,Asia,Kazakhstan,Mangistauskaya,"Aktau City, 14 ",Exact,1/16/2017,2/6/2017,Confirmed,Influenza - Avian,H5N8 HPAI,"wild, swan",,2,2,,,,0,,
224555,OIE,8.96,8.28,Africa,Nigeria,Nassarawa,Akwanga,Exact,2/23/2017,3/3/2017,Confirmed,Influenza - Avian,H5N1 HPAI,"domestic, chicken",3200,9,9,3191,0,,,,
207116,National authorities,31.49,34.45,Asia,Gaza Strip,Gaza,"Al Sabrah, Al Sabrah",Centroid Admin1,8/6/2015,8/6/2015,Confirmed,Influenza - Avian,H5N1 HPAI,"domestic, duck",50,25,25,40,,,,,
207115,National authorities,31.49,34.45,Asia,Gaza Strip,Gaza,"Al Sabrah, Al Sabrah",Centroid Admin1,8/6/2015,8/6/2015,Confirmed,Influenza - Avian,H5N1 HPAI,"domestic, duck",100,18,18,88,,,,,
207114,National authorities,31.49,34.45,Asia,Gaza Strip,Gaza,"Al Sabrah, Al Sabrah",Centroid Admin1,8/6/2015,8/6/2015,Confirmed,Influenza - Avian,H5N1 HPAI,"domestic, duck",10,3,3,8,,,,,
207113,National authorities,31.49,34.45,Asia,Gaza Strip,Gaza,"Al Sabrah, Al Sabrah",Centroid Admin1,8/6/2015,8/6/2015,Confirmed,Influenza - Avian,H5N1 HPAI,"domestic, duck",140,30,30,125,,,,,
226037,National authorities,30.95,31.59,Africa,Egypt,Dakahlia,Alamier,Centroid Admin2,2/7/2017,2/8/2017,Confirmed,Influenza - Avian,H5N8 HPAI,"domestic, chicken, domestic, duck, domestic, unspecified bird",,22,,22,,,,,
214847,OIE,33.64,44.80,Asia,Iraq,Diyala,Alazezia,Exact,7/9/2016,7/25/2016,Confirmed,Influenza - Avian,H5N1 HPAI,"domestic, unspecified bird",914000,410,410,913590,0,,,,
214852,OIE,33.64,44.80,Asia,Iraq,Diyala,Alazezia,Exact,7/13/2016,7/25/2016,Confirmed,Influenza - Avian,H5N1 HPAI,"domestic, unspecified bird",305000,7660,7660,297340,0,,,,
214851,OIE,33.64,44.80,Asia,Iraq,Diyala,Alazezia,Exact,7/12/2016,7/25/2016,Confirmed,Influenza - Avian,H5N1 HPAI,"domestic, unspecified bird",146500,7530,7530,138970,0,,,,
211888,OIE,31.94,45.64,Asia,Iraq,Qadissiya,Al-Badiar,Exact,1/25/2016,4/25/2016,Confirmed,Influenza - Avian,H5N1 HPAI,"domestic, unspecified bird",7000,800,800,6200,,,,,
211887,OIE,31.94,45.64,Asia,Iraq,Qadissiya,Al-Badiar,Exact,1/25/2016,4/25/2016,Confirmed,Influenza - Avian,H5N1 HPAI,"domestic, unspecified bird",6000,1200,1200,4800,,,,,
230190,OIE,45.30,11.32,Europe,Italy,Veneto,Albaredo D'Adige,Exact,7/23/2017,7/28/2017,Confirmed,Influenza - Avian,H5N8 HPAI,"domestic, turkey",17724,3120,1000,16724,,,,,
224065,OIE,48.28,9.81,Europe,Germany,Baden-Wuerttemberg,Alb-Donau-Kreis,Exact,2/6/2017,2/10/2017,Confirmed,Influenza - Avian,H5N8 HPAI,"wild, unspecified bird",,1,1,0,0,,,,
223872,OIE,40.85,25.87,Europe,Greece,Anatoliki Makedonia Kai Thraki,Alexandroupolis,Unknown,2/1/2017,2/16/2017,Confirmed,Influenza - Avian,H5N8 HPAI,"wild,mute swan (cygnus olor))",,1,1,,,,0,,
225278,National authorities,26.24,31.94,Africa,Egypt,Suhag,Alghabat,Centroid Admin2,3/5/2017,3/6/2017,Confirmed,Influenza - Avian,H5N1 HPAI,"domestic, chicken",,26,,26,,,,,
220445,OIE,46.31,20.27,Europe,Hungary,Csongrad,Algyo,Exact,12/6/2016,12/13/2016,Confirmed,Influenza - Avian,H5N8 HPAI,"domestic, turkey",10000,0,0,0,0,,0,,
228570,OIE,22.87,120.31,Asia,Taiwan (Province Of China),Taiwan Sheng,Alian District,Exact,6/13/2017,6/23/2017,Confirmed,Influenza - Avian,H5N2 HPAI,"domestic, chicken",2252,44,44,2208,0,,,,
221592,OIE,56.05,9.85,Europe,Denmark,Aarhus,Alken,Unknown,12/8/2016,12/22/2016,Confirmed,Influenza - Avian,H5N8 HPAI,"wild, gull",,1,0,1,0,,,,
216827,National authorities,-3.97,119.79,Asia,Indonesia,Sulawesi Selatan,Allakukang,Exact,3/1/2016,3/1/2016,Confirmed,Influenza - Avian,H5N1 HPAI,"domestic, chicken",,,1347,,,,,,
209712,National authorities,26.31,31.86,Africa,Egypt,Suhag,Allam,Centroid Admin2,1/6/2016,1/8/2016,Confirmed,Influenza - Avian,H5N1 HPAI,"domestic, duck",,10,,10,,,,,
225482,OIE,44.09,27.33,Europe,Romania,Constanta,Almalau,Exact,3/8/2017,3/16/2017,Confirmed,Influenza - Avian,H5N8 HPAI,"domestic, unspecified bird",39,39,39,0,0,,,,
225581,OIE,44.09,27.33,Europe,Romania,Constanta,Almalau,Exact,2/23/2017,3/21/2017,Confirmed,Influenza - Avian,H5N8 HPAI,"domestic, unspecified bird",29,2,2,27,0,,,,
224422,OIE,44.09,27.33,Europe,Romania,Constanta,Almalau,Exact,2/20/2017,2/28/2017,Confirmed,Influenza - Avian,H5N8 HPAI,"domestic, unspecified bird",35,35,35,0,0,,,,
224028,OIE,44.09,27.33,Europe,Romania,Constanta,Almalau,Unknown,2/11/2017,2/16/2017,Confirmed,Influenza - Avian,H5N8 HPAI,"domestic, unspecified bird",82,59,59,23,0,,,,
224027,OIE,44.09,27.33,Europe,Romania,Constanta,Almalau,Unknown,2/11/2017,2/16/2017,Confirmed,Influenza - Avian,H5N8 HPAI,"domestic, unspecified bird",63,7,7,56,0,,,,
220920,OIE,44.10,2.17,Europe,France,Midi-Pyrenees,Almayrac,Exact,12/11/2016,12/19/2016,Confirmed,Influenza - Avian,H5N8 HPAI,"wild, magpie",,1,1,0,0,,,,
220098,OIE,44.10,2.17,Europe,France,Midi-Pyrenees,Almayrac,Exact,12/1/2016,12/2/2016,Confirmed,Influenza - Avian,H5N8 HPAI,"domestic, chicken",6120,300,300,5820,0,,,,
219985,OIE,44.10,2.17,Europe,France,Midi-Pyrenees,Almayrac,Exact,12/1/2016,12/2/2016,Confirmed,Influenza - Avian,H5N8 HPAI,"domestic, duck",6120,300,300,5820,0,,0,,
219859,National authorities,44.10,2.17,Europe,France,Midi-Pyrenees,Almayrac,Centroid Admin2,11/25/2016,12/2/2016,Confirmed,Influenza - Avian,H5N8 HPAI,"domestic, duck",5143,2000,2000,3000,,,0,,
219811,OIE,52.31,5.24,Europe,Netherlands,Noord-Holland,Almeerder Zand,Unknown,11/13/2016,11/29/2016,Confirmed,Influenza - Avian,H5N8 HPAI,"wild, tufted duck",,1,1,0,0,,,,
211892,National authorities,29.87,31.33,Africa,Egypt,Cairo,Alo,Centroid Admin2,4/9/2016,4/17/2016,Confirmed,Influenza - Avian,H5N1 HPAI,"domestic, chicken",,10,,10,,,,,
227934,OIE,32.03,12.57,Africa,Libya,Yafran (Yefren),Alsabta,Exact,5/8/2017,5/19/2017,Confirmed,Influenza - Avian,H7 LPAI,"domestic, unspecified bird",20,,1,19,,,,,
214846,OIE,33.02,44.78,Asia,Iraq,Wassit,Alsewara 1,Exact,6/29/2016,7/25/2016,Confirmed,Influenza - Avian,H5N1 HPAI,"domestic, unspecified bird",539000,51049,51049,487951,0,,,,
217875,FAO Field Officer,27.08,89.44,Asia,Bhutan,Chhukha,Alubari Of Wangkha ,Exact,10/10/2016,10/15/2016,Confirmed,Influenza - Avian,H5N1 HPAI,"domestic, unspecified bird",3000,13,13,61,,,0,,
214849,OIE,33.09,44.74,Asia,Iraq,Baghdad,Alwahda,Exact,7/11/2016,7/25/2016,Confirmed,Influenza - Avian,H5N1 HPAI,"domestic, unspecified bird",19335,1500,1500,17835,0,,,,
214848,OIE,33.09,44.74,Asia,Iraq,Baghdad,Alwahda,Exact,7/11/2016,7/25/2016,Confirmed,Influenza - Avian,H5N1 HPAI,"domestic, unspecified bird",58000,400,400,57600,0,,,,
214845,OIE,33.09,44.74,Asia,Iraq,Baghdad,Alwahda,Exact,6/29/2016,7/25/2016,Confirmed,Influenza - Avian,H5N1 HPAI,"domestic, unspecified bird",15700,160,160,15540,0,,,,
214844,OIE,33.09,44.74,Asia,Iraq,Baghdad,Alwahda,Exact,6/22/2016,7/25/2016,Confirmed,Influenza - Avian,H5N1 HPAI,"domestic, unspecified bird",112500,1325,1325,111175,0,,,,
214843,OIE,33.09,44.74,Asia,Iraq,Baghdad,Alwahda,Exact,6/21/2016,7/25/2016,Confirmed,Influenza - Avian,H5N1 HPAI,"domestic, unspecified bird",28000,800,800,27200,0,,,,
214842,OIE,33.09,44.74,Asia,Iraq,Baghdad,Alwahda,Exact,6/15/2016,7/25/2016,Confirmed,Influenza - Avian,H5N1 HPAI,"domestic, unspecified bird",668000,439799,439799,228201,0,,,,
214850,OIE,33.09,44.74,Asia,Iraq,Baghdad,Alwahda,Exact,7/11/2016,7/25/2016,Confirmed,Influenza - Avian,H5N1 HPAI,"domestic, unspecified bird",17000,2315,2315,14685,0,,,,
211125,OIE,8.88,7.58,Africa,Nigeria,Nassarawa,Amac,Exact,3/1/2016,3/7/2016,Confirmed,Influenza - Avian,H5N1 HPAI,"domestic, chicken",1499,75,75,1424,,,,,
213853,OIE,6.76,-1.80,Africa,Ghana,Ashanti,Amadom Adankwame,Exact,6/10/2016,6/28/2016,Confirmed,Influenza - Avian,H5N1 HPAI,"domestic, chicken",4808,3132,3132,1676,0,,,,
206898,FAO Field Officer,7.78,-4.95,Africa,Ca´Te D'Ivoire,Vallee Du Bandama,"Amanibo 2, Bouake",Exact,5/18/2015,9/1/2015,Confirmed,Influenza - Avian,H5N1 HPAI,"domestic, chicken",4000,3644,1280,2720,0,,,,
221992,OIE,9.50,76.40,Asia,India,Kerala,Ambalappuzha South,Centroid Admin2,11/23/2016,1/12/2017,Confirmed,Influenza - Avian,H5N8 HPAI,"domestic, unspecified bird",12626,3146,3146,9480,0,,,,
221979,OIE,9.50,76.40,Asia,India,Kerala,Ambalapuzha North,Centroid Admin2,10/26/2016,1/12/2017,Confirmed,Influenza - Avian,H5N8 HPAI,"domestic, unspecified bird",65014,13505,13505,51509,0,,,,
224765,OIE,49.43,11.86,Europe,Germany,Bayern,Amberg,Unknown,2/21/2017,2/28/2017,Confirmed,Influenza - Avian,H5N8 HPAI,"wild, anatidae",,1,1,0,0,,,,
228504,OIE,50.03,5.52,Europe,Belgium,Region Wallonne,Amberloup,Exact,6/13/2017,6/15/2017,Confirmed,Influenza - Avian,H5N8 HPAI,"domestic, unspecified bird",25,10,10,15,0,,,,
209527,National authorities,30.95,31.58,Africa,Egypt,Dakahlia,Amer Kafr,Centroid Admin2,12/30/2015,12/31/2015,Confirmed,Influenza - Avian,H5N1 HPAI,"domestic, chicken, domestic, duck, domestic, unspecified bird",,60,,60,,,,,
225084,OIE,53.08,7.99,Europe,Germany,Niedersachsen,Ammerland,Exact,2/20/2017,3/10/2017,Confirmed,Influenza - Avian,H5N8 HPAI,"wild, swan",,1,1,0,0,,,,
209209,National authorities,26.69,31.48,Africa,Egypt,Suhag,Amour,Centroid Admin2,12/3/2015,12/5/2015,Confirmed,Influenza - Avian,H5N1 HPAI,"domestic, duck",,5,,5,,,,,
223466,OIE,52.31,4.89,Europe,Netherlands,Noord-Holland,Amstelveen,Unknown,1/31/2017,2/8/2017,Confirmed,Influenza - Avian,H5N8 HPAI,"wild, common coot, wild, anatidae",,4,4,0,0,,,,
226176,OIE,12.96,108.23,Asia,Viet Nam,Dak Lak,An Binh,Exact,4/5/2017,4/7/2017,Confirmed,Influenza - Avian,H5N1 HPAI,"domestic, unspecified bird",43,43,43,0,0,,,,
206270,OIE,15.11,108.74,Asia,Viet Nam,Quang Ngai,"An Binh, Nghia Ky, Tu Nghia, Quang Ngai",Exact,7/23/2015,8/3/2015,Confirmed,Influenza - Avian,H5N6 HPAI,"domestic, unspecified bird",1200,1200,115,1085,0,,,,
224948,OIE,11.08,106.23,Asia,Viet Nam,Tay Ninh,An Thanh,Exact,3/3/2017,3/9/2017,Confirmed,Influenza - Avian,H5N1 HPAI,"domestic, unspecified bird",500,50,50,450,0,,,,
225940,OIE,43.39,-0.90,Europe,France,Aquitaine,Andrein,Unknown,3/20/2017,4/3/2017,Confirmed,Influenza - Avian,H5N8 HPAI,"domestic, unspecified bird",533,0,0,533,0,,,,
225741,OIE,43.39,-0.90,Europe,France,Aquitaine,Andrein,Exact,3/20/2017,3/28/2017,Confirmed,Influenza - Avian,H5N8 HPAI,"environmental sample, unspecified bird",1512,0,0,1512,0,,,,
225735,OIE,43.39,-0.90,Europe,France,Aquitaine,Andrein,Exact,3/17/2017,3/28/2017,Confirmed,Influenza - Avian,H5N8 HPAI,"environmental sample, unspecified bird",0,0,0,0,0,,,,
213973,OIE,2.91,11.15,Africa,Cameroon,Sud,Angale,Unknown,5/24/2016,7/4/2016,Confirmed,Influenza - Avian,H5N1 HPAI,"domestic, chicken",500,200,200,300,0,,,,
206940,OIE,6.26,6.20,Africa,Nigeria,Delta,Angbor,Exact,8/12/2015,9/3/2015,Confirmed,Influenza - Avian,H5N1 HPAI,"domestic, chicken",400,250,100,300,0,,,,
223398,OIE,58.88,17.58,Europe,Sweden,Soedermanlands Laen,Angelholm,Exact,1/30/2017,2/3/2017,Confirmed,Influenza - Avian,H5N8 HPAI,"domestic, unspecified bird",46,11,11,35,0,,,,
209693,OIE,9.81,8.89,Africa,Nigeria,Plateau,Angle D,Exact,1/9/2016,1/13/2016,Confirmed,Influenza - Avian,H5N1 HPAI,"domestic, chicken",391,11,11,380,0,,,,
228492,OIE,2.17,30.92,Africa,Democratic Republic Of The Congo,Orientale,Anguza Pajulu,Exact,5/17/2017,6/14/2017,Confirmed,Influenza - Avian,H5N8 HPAI,"domestic, unspecified bird",,45,45,0,0,,,,
211090,OIE,9.85,8.02,Africa,Nigeria,Kaduna,Angware,Exact,2/29/2016,3/4/2016,Confirmed,Influenza - Avian,H5N1 HPAI,"domestic, chicken",39763,1500,1500,38263,0,,,,
211087,OIE,9.85,8.02,Africa,Nigeria,Kaduna,Angware,Exact,2/29/2016,3/4/2016,Confirmed,Influenza - Avian,H5N1 HPAI,"domestic, chicken",39763,1500,1500,38263,0,,,,
222694,OIE,51.74,11.95,Europe,Germany,Sachsen-Anhalt,Anhalt-Bitterfeld,Unknown,1/20/2017,1/20/2017,Confirmed,Influenza - Avian,H5N8 HPAI,"wild, wild duck",,1,1,0,0,,,,
225892,National authorities,32.04,117.17,Asia,China,Anhui Sheng,Anhui Sheng,Centroid Admin1,3/11/2017,3/24/2017,Confirmed,Influenza - Avian,H7N9 LPAI,,,,,,,,,1,
221419,National authorities,32.04,117.17,Asia,China,Anhui Sheng,Anhui Sheng,Centroid Admin1,,9/30/2015,Confirmed,Influenza - Avian,H9N2 LPAI,,,,,,,,0,1,
220952,National authorities,32.04,117.17,Asia,China,Anhui Sheng,Anhui Sheng,Centroid Admin1,,9/30/2015,Confirmed,Influenza - Avian,H7N9 LPAI,,,,,,,,,1,
213408,WHO,32.04,117.17,Asia,China,Anhui Sheng,Anhui Sheng,Exact,4/14/2015,12/14/2015,Confirmed,Influenza - Avian,H9N2 LPAI,,,,,,,,,1,
223203,National authorities,32.04,117.17,Asia,China,Anhui Sheng,Anhui Sheng,Centroid Admin1,1/26/2017,2/14/2017,Confirmed,Influenza - Avian,H7N9 LPAI,,,,,,,Male,32,1,
223601,National authorities,32.04,117.17,Asia,China,Anhui Sheng,Anhui Sheng,Centroid Admin1,,1/25/2017,Confirmed,Influenza - Avian,H7N9 LPAI,,,,,,,,,1,
223607,National authorities,32.04,117.17,Asia,China,Anhui Sheng,Anhui Sheng,Centroid Admin1,12/16/2016,1/16/2017,Confirmed,Influenza - Avian,H7N9 LPAI,,,,,,,,,1,1
223273,National authorities,32.04,117.17,Asia,China,Anhui Sheng,Anhui Sheng,Centroid Admin2,7/15/2016,10/31/2016,Confirmed,Influenza - Avian,H5N6 HPAI,"domestic, chicken, domestic, duck",,2,,,,,,,
223272,National authorities,32.04,117.17,Asia,China,Anhui Sheng,Anhui Sheng,Centroid Admin2,7/15/2016,10/31/2016,Confirmed,Influenza - Avian,H5N6 HPAI,"domestic, chicken, domestic, duck",,2,,,,,,,
223271,National authorities,32.04,117.17,Asia,China,Anhui Sheng,Anhui Sheng,Centroid Admin2,7/15/2016,10/31/2016,Confirmed,Influenza - Avian,H5N6 HPAI,"domestic, duck",,1,,,,,,,
223270,National authorities,32.04,117.17,Asia,China,Anhui Sheng,Anhui Sheng,Centroid Admin2,7/15/2016,10/31/2016,Confirmed,Influenza - Avian,H5N6 HPAI,"domestic, duck",,1,,,,,,,
223269,National authorities,32.04,117.17,Asia,China,Anhui Sheng,Anhui Sheng,Centroid Admin2,7/15/2016,10/31/2016,Confirmed,Influenza - Avian,H5N1 HPAI,"domestic, duck, domestic, chicken",,2,,,,,,,
215378,National authorities,32.04,117.17,Asia,China,Anhui Sheng,Anhui Sheng,Centroid Admin2,12/15/2015,1/15/2016,Confirmed,Influenza - Avian,H5N2 HPAI,"domestic, duck",,1,,,,,,,
215376,National authorities,32.04,117.17,Asia,China,Anhui Sheng,Anhui Sheng,Centroid Admin2,12/15/2015,1/15/2016,Confirmed,Influenza - Avian,H5N2 HPAI,"domestic, chicken, domestic, chicken",,2,,,,,0,,
215375,National authorities,32.04,117.17,Asia,China,Anhui Sheng,Anhui Sheng,Centroid Admin2,12/15/2015,1/15/2016,Confirmed,Influenza - Avian,H5N1 HPAI,"domestic, duck",,1,,,,,,,
209822,OIE,5.87,6.26,Africa,Nigeria,Delta,Aniocha,Exact,1/12/2016,1/19/2016,Confirmed,Influenza - Avian,H5N1 HPAI,"domestic, chicken",1609,402,402,1207,0,,,,
216730,National authorities,-6.35,107.97,Asia,Indonesia,Jawa Barat,Anjatan Utara,Exact,1/8/2016,1/8/2016,Confirmed,Influenza - Avian,H5N1 HPAI,"domestic, chicken",,,230,,,,,,
210640,National authorities,30.81,120.02,Asia,China,Zhejiang Sheng,Anji Wholesale Market In Huzhou City,Centroid Admin2,,2/15/2016,Confirmed,Influenza - Avian,H7N9 LPAI,"domestic, chicken",,1,,,,,,,
210797,OIE,23.06,120.19,Asia,Taiwan (Province Of China),Taiwan Sheng,Annan District,Exact,2/5/2016,2/22/2016,Confirmed,Influenza - Avian,H5N2 HPAI,"domestic, chicken",11750,6031,6031,5719,0,,,,
223850,National authorities,30.53,117.05,Asia,China,Anhui Sheng,Anqing,Unknown,2/4/2017,2/16/2017,Confirmed,Influenza - Avian,H7N9 LPAI,,,,,,,,,1,
223851,National authorities,30.53,117.05,Asia,China,Anhui Sheng,Anqing,Unknown,1/27/2017,2/16/2017,Confirmed,Influenza - Avian,H7N9 LPAI,,,,,,,,,1,
222635,National authorities,30.53,117.05,Asia,China,Anhui Sheng,Anqing,Exact,1/13/2017,1/20/2017,Confirmed,Influenza - Avian,H7N9 LPAI,,,,,,,,,,
224776,OIE,49.18,10.69,Europe,Germany,Bayern,Ansbach,Unknown,2/27/2017,2/28/2017,Confirmed,Influenza - Avian,H5N8 HPAI,"wild, anatidae",,1,1,0,0,,,,
220831,National authorities,36.99,127.29,Asia,Republic Of Korea,Kyonggi-Do,Anseong-Si,Centroid Locality,12/12/2016,12/19/2016,Confirmed,Influenza - Avian,H5N8 HPAI,"wild, unspecified bird",,,,,,,,,
227565,OIE,36.99,127.29,Asia,Republic Of Korea,Kyonggi-Do,Anseong-Si,Exact,12/24/2016,5/4/2017,Confirmed,Influenza - Avian,H5N6 HPAI,"domestic, chicken",8520,40,40,8480,,,,,
227554,OIE,36.99,127.29,Asia,Republic Of Korea,Kyonggi-Do,Anseong-Si,Exact,12/23/2016,5/4/2017,Confirmed,Influenza - Avian,H5N6 HPAI,"domestic, chicken",222138,60,60,222078,,,,,
227551,OIE,36.99,127.29,Asia,Republic Of Korea,Kyonggi-Do,Anseong-Si,Exact,12/23/2016,5/4/2017,Confirmed,Influenza - Avian,H5N6 HPAI,"domestic, chicken",29965,150,150,29815,,,,,
227550,OIE,36.99,127.29,Asia,Republic Of Korea,Kyonggi-Do,Anseong-Si,Exact,12/22/2016,5/4/2017,Confirmed,Influenza - Avian,H5N6 HPAI,"domestic, chicken",54129,100,100,54029,,,,,
227533,OIE,36.99,127.29,Asia,Republic Of Korea,Kyonggi-Do,Anseong-Si,Exact,12/20/2016,5/4/2017,Confirmed,Influenza - Avian,H5N6 HPAI,"domestic, chicken",206742,200,200,206542,,,,,
227532,OIE,36.99,127.29,Asia,Republic Of Korea,Kyonggi-Do,Anseong-Si,Exact,12/20/2016,5/4/2017,Confirmed,Influenza - Avian,H5N6 HPAI,"domestic, chicken",96658,130,130,96528,,,,,
227520,OIE,36.99,127.29,Asia,Republic Of Korea,Kyonggi-Do,Anseong-Si,Exact,12/19/2016,5/4/2017,Confirmed,Influenza - Avian,H5N6 HPAI,"domestic, chicken",169340,50,50,169290,,,,,
227494,OIE,36.99,127.29,Asia,Republic Of Korea,Kyonggi-Do,Anseong-Si,Exact,12/16/2016,5/4/2017,Confirmed,Influenza - Avian,H5N6 HPAI,"domestic, chicken",29642,34,34,29608,0,,,,
227477,OIE,36.99,127.29,Asia,Republic Of Korea,Kyonggi-Do,Anseong-Si,Exact,12/14/2016,5/4/2017,Confirmed,Influenza - Avian,H5N6 HPAI,"domestic, chicken",293350,400,400,292950,0,,,,
227462,OIE,36.99,127.29,Asia,Republic Of Korea,Kyonggi-Do,Anseong-Si,Exact,12/13/2016,5/4/2017,Confirmed,Influenza - Avian,H5N6 HPAI,"domestic, chicken",43470,170,170,43300,0,,,,
227461,OIE,36.99,127.29,Asia,Republic Of Korea,Kyonggi-Do,Anseong-Si,Exact,12/13/2016,5/4/2017,Confirmed,Influenza - Avian,H5N6 HPAI,"domestic, duck",6253,203,203,6050,0,,,,
227459,OIE,36.99,127.29,Asia,Republic Of Korea,Kyonggi-Do,Anseong-Si,Exact,12/13/2016,5/4/2017,Confirmed,Influenza - Avian,H5N6 HPAI,"domestic, duck",5390,1,1,5389,0,,,,
227454,OIE,36.99,127.29,Asia,Republic Of Korea,Kyonggi-Do,Anseong-Si,Exact,12/12/2016,5/4/2017,Confirmed,Influenza - Avian,H5N6 HPAI,"domestic, duck",10650,150,150,10500,0,,,,
227438,OIE,36.99,127.29,Asia,Republic Of Korea,Kyonggi-Do,Anseong-Si,Exact,12/11/2016,5/4/2017,Confirmed,Influenza - Avian,H5N6 HPAI,"domestic, chicken",399065,61,61,399004,0,,,,
227409,OIE,36.99,127.29,Asia,Republic Of Korea,Kyonggi-Do,Anseong-Si,Exact,12/7/2016,5/4/2017,Confirmed,Influenza - Avian,H5N6 HPAI,"domestic, duck",5371,100,100,5271,0,,,,
227408,OIE,36.99,127.29,Asia,Republic Of Korea,Kyonggi-Do,Anseong-Si,Exact,12/7/2016,5/4/2017,Confirmed,Influenza - Avian,H5N6 HPAI,"domestic, chicken",59500,100,100,59400,0,,,,
227322,OIE,36.99,127.29,Asia,Republic Of Korea,Kyonggi-Do,Anseong-Si,Exact,12/1/2016,5/4/2017,Confirmed,Influenza - Avian,H5N6 HPAI,"domestic, chicken",39246,500,500,38746,0,,,,
227296,OIE,36.99,127.29,Asia,Republic Of Korea,Kyonggi-Do,Anseong-Si,Exact,11/25/2016,5/4/2017,Confirmed,Influenza - Avian,H5N6 HPAI,"domestic, chicken",27206,550,550,26656,0,,,,
227036,OIE,36.99,127.29,Asia,Republic Of Korea,Kyonggi-Do,Anseong-Si,Exact,1/14/2017,4/14/2017,Confirmed,Influenza - Avian,H5N6 HPAI,"domestic, chicken",108687,80,80,108607,0,,,,
227031,OIE,36.99,127.29,Asia,Republic Of Korea,Kyonggi-Do,Anseong-Si,Exact,1/9/2017,4/14/2017,Confirmed,Influenza - Avian,H5N6 HPAI,"domestic, chicken",144,30,30,114,0,,,,
227030,OIE,36.99,127.29,Asia,Republic Of Korea,Kyonggi-Do,Anseong-Si,Exact,1/9/2017,4/14/2017,Confirmed,Influenza - Avian,H5N6 HPAI,"domestic, chicken",99491,3887,3887,95604,0,,,,
227029,OIE,36.99,127.29,Asia,Republic Of Korea,Kyonggi-Do,Anseong-Si,Exact,1/8/2017,4/14/2017,Confirmed,Influenza - Avian,H5N6 HPAI,"domestic, chicken",137190,12,12,137178,0,,,,
227016,OIE,36.99,127.29,Asia,Republic Of Korea,Kyonggi-Do,Anseong-Si,Exact,1/1/2017,4/14/2017,Confirmed,Influenza - Avian,H5N6 HPAI,"domestic, chicken",376570,130,130,376440,0,,,,
227012,OIE,36.99,127.29,Asia,Republic Of Korea,Kyonggi-Do,Anseong-Si,Exact,12/30/2016,4/14/2017,Confirmed,Influenza - Avian,H5N6 HPAI,"domestic, chicken",39300,24,24,39276,0,,,,
227008,OIE,36.99,127.29,Asia,Republic Of Korea,Kyonggi-Do,Anseong-Si,Exact,12/28/2016,4/14/2017,Confirmed,Influenza - Avian,H5N6 HPAI,"domestic, chicken",42039,505,505,41534,0,,,,
222671,OIE,43.33,0.29,Europe,France,Midi-Pyrenees,Antin,Unknown,1/13/2017,1/20/2017,Confirmed,Influenza - Avian,H5N8 HPAI,"domestic, duck",12000,0,0,12000,0,,,,
222670,OIE,43.33,0.29,Europe,France,Midi-Pyrenees,Antin,Unknown,1/13/2017,1/20/2017,Confirmed,Influenza - Avian,H5N8 HPAI,"domestic, duck",8000,0,0,8000,0,,,,
222669,OIE,43.33,0.29,Europe,France,Midi-Pyrenees,Antin,Unknown,1/13/2017,1/20/2017,Confirmed,Influenza - Avian,H5N8 HPAI,"domestic, chicken",12500,0,0,12500,0,,,,
226123,National authorities,30.09,105.33,Asia,China,Sichuan Sheng,Anyue County,Unknown,,4/8/2017,Confirmed,Influenza - Avian,H7N9 LPAI,,,,,,,,0,1,
220013,OIE,40.81,140.75,Asia,Japan,Aomori,Aomori-Shi,Exact,12/2/2016,12/5/2016,Confirmed,Influenza - Avian,H5N6 HPAI,"domestic, duck",4725,5,5,4720,0,,0,,
219589,National authorities,40.81,140.75,Asia,Japan,Aomori,Aomorisi,Exact,11/28/2016,11/28/2016,Confirmed,Influenza - Avian,H5N6 HPAI,"domestic, duck",16500,10,10,,,,0,,
228441,National authorities,26.55,31.66,Africa,Egypt,Suhag,Aoulad Nossier,Centroid Admin2,3/22/2017,3/24/2017,Confirmed,Influenza - Avian,H5N8 HPAI,"domestic, duck",,20,,20,,,,,
226048,National authorities,26.55,31.66,Africa,Egypt,Suhag,Aoulad Nossier,Centroid Admin2,3/22/2017,3/24/2017,Confirmed,Influenza - Avian,H5N1 HPAI,"domestic, duck, domestic, turkey, domestic, unspecified bird",,20,,20,,,,,
209855,National authorities,26.55,31.66,Africa,Egypt,Suhag,Aoulad Nossier,Centroid Admin2,1/21/2016,1/22/2016,Confirmed,Influenza - Avian,H5N1 HPAI,"domestic, duck",,10,,10,,,,,
209854,National authorities,26.55,31.66,Africa,Egypt,Suhag,Aoulad Nossier,Centroid Admin2,1/20/2016,1/22/2016,Confirmed,Influenza - Avian,H5N1 HPAI,"domestic, turkey",,10,,10,,,,,
223963,OIE,10.95,107.21,Asia,Viet Nam,Dong Nai,Ap 3,Unknown,2/14/2017,2/21/2017,Confirmed,Influenza - Avian,H5N1 HPAI,"domestic, unspecified bird",5000,3000,2000,3000,0,,,,
223083,OIE,45.67,18.97,Europe,Serbia,Zapadno-Backi,Apatin (Danube River),Exact,1/25/2017,1/31/2017,Confirmed,Influenza - Avian,H5N8 LPAI,"wild,mute swan (cygnus olor))",,2,2,0,0,,,,
222741,OIE,45.74,13.35,Europe,Italy,Friuli-Venezia Giulia,Aquileia,Unknown,1/19/2017,1/24/2017,Confirmed,Influenza - Avian,H5N8 HPAI,"wild, whooper swan",,1,1,0,0,,,,
221935,OIE,43.70,-0.26,Europe,France,Aquitaine,Aquitaine,Exact,12/29/2016,1/9/2017,Confirmed,Influenza - Avian,H5N8 HPAI,"domestic, duck",6000,0,0,6000,0,,,,
221873,OIE,43.70,-0.26,Europe,France,Aquitaine,Aquitaine,Exact,12/24/2016,12/30/2016,Confirmed,Influenza - Avian,H5N8 HPAI,"domestic, duck",6000,100,100,0,0,,,,
221838,OIE,43.70,-0.26,Europe,France,Aquitaine,Aquitaine,Exact,12/21/2016,12/26/2016,Confirmed,Influenza - Avian,H5N3 LPAI,"domestic, unspecified bird",,,,,,,,,
224242,OIE,43.70,-0.26,Europe,France,Aquitaine,Aquitaine,Exact,2/19/2017,2/24/2017,Confirmed,Influenza - Avian,H5N8 HPAI,"domestic, duck",0,0,0,0,0,,,,
221130,FAO Field Officer,30.75,31.90,Africa,Egypt,Shrkia,Arab Elhaswa,Centroid Admin2,12/29/2016,1/2/2017,Confirmed,Influenza - Avian,H5N8 HPAI,"domestic, unspecified bird",190,89,60,101,,,0,,
226043,National authorities,29.09,31.07,Africa,Egypt,Beni Suef,Arab Marekt,Centroid Admin2,3/21/2017,3/23/2017,Confirmed,Influenza - Avian,H5N1 HPAI,"domestic, chicken",,22500,,22500,,,,,
224914,OIE,46.18,21.32,Europe,Romania,Arad,Arad,Unknown,2/1/2017,3/7/2017,Confirmed,Influenza - Avian,H5N8 HPAI,"wild,great cormorant (phalacrocorax carbo))",,1,1,0,0,,,,
211605,National authorities,29.21,30.71,Africa,Egypt,Fayoum,Arafa,Centroid Admin2,3/17/2016,3/19/2016,Confirmed,Influenza - Avian,H5N1 HPAI,"domestic, duck",,10,,10,,,,,
223504,OIE,43.71,-0.18,Europe,France,Midi-Pyrenees,Arblade Le Bas,Exact,1/29/2017,2/10/2017,Confirmed,Influenza - Avian,H5N8 HPAI,"domestic, unspecified bird",20,,,20,,,,,
221840,OIE,43.74,-0.06,Europe,France,Midi-Pyrenees,Arblade Le Haut,Exact,12/16/2016,12/26/2016,Confirmed,Influenza - Avian,H5N1 LPAI,"domestic, unspecified bird",1000,0,0,0,0,,,,
223515,OIE,43.71,-0.18,Europe,France,Midi-Pyrenees,Arblade The Bast,Exact,2/2/2017,2/10/2017,Confirmed,Influenza - Avian,H5N8 HPAI,"domestic, unspecified bird",,,,,,,,,
223032,OIE,43.61,-0.43,Europe,France,Aquitaine,Arboucave,Exact,1/17/2017,1/27/2017,Confirmed,Influenza - Avian,H5N8 HPAI,"domestic, chicken",27500,,45,27455,,,,,
222002,OIE,43.61,-0.43,Europe,France,Aquitaine,Arboucave,Unknown,1/9/2017,1/13/2017,Confirmed,Influenza - Avian,H5N8 HPAI,"domestic, unspecified bird",10500,300,300,0,0,,,,
221969,OIE,43.61,-0.43,Europe,France,Aquitaine,Arboucave,Exact,1/8/2017,1/13/2017,Confirmed,Influenza - Avian,H5N8 HPAI,"domestic, duck",3600,36,36,3564,,,,,
225743,OIE,43.37,-1.00,Europe,France,Aquitaine,Arbouet Sussaute,Exact,3/20/2017,3/28/2017,Confirmed,Influenza - Avian,H5N8 HPAI,"environmental sample, unspecified bird",615,0,0,615,0,,,,
224634,OIE,48.13,6.54,Europe,France,Lorraine,Archettes,Exact,2/22/2017,3/3/2017,Confirmed,Influenza - Avian,H5N8 HPAI,"wild,mute swan (cygnus olor))",,0,0,0,0,,,,
223220,National authorities,42.25,27.63,Europe,Bulgaria,Burgas,Arcoutino,Centroid Admin2,1/4/2017,1/6/2017,Confirmed,Influenza - Avian,H5N8 HPAI,"wild, unspecified bird",,3,,,,,,,
226313,OIE,22.33,114.19,Asia,"Hong Kong, Sar",Administrative Unit Not Available,Argyle Street Playground,Exact,4/7/2017,4/12/2017,Confirmed,Influenza - Avian,H5N6 HPAI,"wild, unspecified bird",,1,1,0,0,,,,
221981,OIE,9.62,76.64,Asia,India,Kerala,Arpookkara,Centroid Admin2,10/26/2016,1/12/2017,Confirmed,Influenza - Avian,H5N8 HPAI,"domestic, unspecified bird",28051,2506,2506,25545,0,,,,
209269,OIE,43.54,-0.09,Europe,France,Aquitaine,Arroses,Exact,12/7/2015,12/14/2015,Confirmed,Influenza - Avian,H5N9 HPAI,"domestic, duck",500,25,25,475,0,,,,
225062,OIE,43.58,-0.80,Europe,France,Aquitaine,Arsague,Exact,2/28/2017,3/10/2017,Confirmed,Influenza - Avian,H5N8 HPAI,"domestic, duck",0,0,0,0,0,,,,
211241,OIE,43.58,-0.80,Europe,France,Aquitaine,Arsague,Exact,3/4/2016,3/10/2016,Confirmed,Influenza - Avian,H5N9 HPAI,"domestic, unspecified bird",14370,0,0,0,0,,,,
223048,OIE,49.10,1.78,Europe,France,Ile-De-France,Arthies,Exact,1/18/2017,1/27/2017,Confirmed,Influenza - Avian,H5N2 LPAI,"domestic, pheasant",9050,0,0,0,0,,,,
223344,OIE,43.54,-0.41,Europe,France,Aquitaine,Arzacq-Arraziguet,Exact,1/24/2017,2/3/2017,Confirmed,Influenza - Avian,H5N8 HPAI,"domestic, duck",1000,0,0,1000,0,,,,
225691,OIE,35.72,140.65,Asia,Japan,Tiba,Asahi-Shi,Exact,3/23/2017,3/23/2017,Confirmed,Influenza - Avian,H5N6 HPAI,"domestic, chicken",68000,26,26,0,0,,,,
227538,OIE,36.89,127.04,Asia,Republic Of Korea,Chungchongnam-Do,Asan-Si,Exact,12/21/2016,5/4/2017,Confirmed,Influenza - Avian,H5N6 HPAI,"domestic, duck",6800,,,6800,,,,,
227489,OIE,36.89,127.04,Asia,Republic Of Korea,Chungchongnam-Do,Asan-Si,Exact,12/16/2016,5/4/2017,Confirmed,Influenza - Avian,H5N6 HPAI,"domestic, chicken",50074,74,74,50000,0,,,,
227469,OIE,36.89,127.04,Asia,Republic Of Korea,Chungchongnam-Do,Asan-Si,Exact,12/13/2016,5/4/2017,Confirmed,Influenza - Avian,H5N6 HPAI,"domestic, chicken",24612,12,12,24600,0,,,,
227426,OIE,36.89,127.04,Asia,Republic Of Korea,Chungchongnam-Do,Asan-Si,Exact,12/10/2016,5/4/2017,Confirmed,Influenza - Avian,H5N6 HPAI,"domestic, chicken",812,12,12,800,0,,,,
227413,OIE,36.89,127.04,Asia,Republic Of Korea,Chungchongnam-Do,Asan-Si,Exact,12/8/2016,5/4/2017,Confirmed,Influenza - Avian,H5N6 HPAI,"domestic, chicken",60009,20,9,60000,0,,,,
227412,OIE,36.89,127.04,Asia,Republic Of Korea,Chungchongnam-Do,Asan-Si,Exact,12/8/2016,5/4/2017,Confirmed,Influenza - Avian,H5N6 HPAI,"domestic, chicken",240190,190,190,240000,0,,,,
227356,OIE,36.89,127.04,Asia,Republic Of Korea,Chungchongnam-Do,Asan-Si,Exact,12/4/2016,5/4/2017,Confirmed,Influenza - Avian,H5N6 HPAI,"domestic, duck",7776,0,0,7776,0,,,,
227337,OIE,36.89,127.04,Asia,Republic Of Korea,Chungchongnam-Do,Asan-Si,Exact,12/2/2016,5/4/2017,Confirmed,Influenza - Avian,H5N6 HPAI,"domestic, chicken",160100,100,100,160000,0,,,,
227335,OIE,36.89,127.04,Asia,Republic Of Korea,Chungchongnam-Do,Asan-Si,Exact,12/2/2016,5/4/2017,Confirmed,Influenza - Avian,H5N6 HPAI,"domestic, chicken",200300,300,300,200000,0,,,,
227334,OIE,36.89,127.04,Asia,Republic Of Korea,Chungchongnam-Do,Asan-Si,Exact,12/2/2016,5/4/2017,Confirmed,Influenza - Avian,H5N6 HPAI,"domestic, chicken",4741,241,241,4500,0,,,,
227287,OIE,36.89,127.04,Asia,Republic Of Korea,Chungchongnam-Do,Asan-Si,Exact,11/23/2016,5/4/2017,Confirmed,Influenza - Avian,H5N6 HPAI,"domestic, chicken",53000,3000,3000,50000,0,,,,
227032,OIE,36.89,127.04,Asia,Republic Of Korea,Chungchongnam-Do,Asan-Si,Exact,1/10/2017,4/14/2017,Confirmed,Influenza - Avian,H5N6 HPAI,"domestic, chicken",100013,13,13,100000,0,,,,
227027,OIE,36.89,127.04,Asia,Republic Of Korea,Chungchongnam-Do,Asan-Si,Exact,1/7/2017,4/14/2017,Confirmed,Influenza - Avian,H5N6 HPAI,"domestic, chicken",121530,830,830,120700,0,,,,
222060,OIE,50.08,9.00,Europe,Germany,Bayern,Aschaffenburg,Unknown,12/27/2016,1/9/2017,Confirmed,Influenza - Avian,H5N8 HPAI,"wild, swan",,1,1,0,0,,,,
227597,OIE,42.01,24.88,Europe,Bulgaria,Plovdiv,Asenovgrad,Exact,2/9/2017,5/9/2017,Confirmed,Influenza - Avian,H5N8 HPAI,"wild,mute swan (cygnus olor))",1,1,1,,,,,,
223554,National authorities,42.01,24.88,Europe,Bulgaria,Plovdiv,Asenovgrad,Centroid Admin2,2/6/2017,2/14/2017,Confirmed,Influenza - Avian,H5N8 HPAI,"wild, unspecified bird",,1,,,,,0,,
215190,OIE,5.66,-0.36,Africa,Ghana,Greater Accra,Ashalaja,Exact,7/7/2016,8/5/2016,Confirmed,Influenza - Avian,,"domestic, unspecified bird",451,97,97,354,0,,,,
209526,National authorities,30.59,31.49,Africa,Egypt,Shrkia,Aslouke,Centroid Admin2,12/29/2015,12/30/2015,Confirmed,Influenza - Avian,H5N1 HPAI,"domestic, chicken",,10,,10,,,,,
214115,National authorities,27.12,31.23,Africa,Egypt,Assiut,Assiut,Centroid Admin2,7/7/2016,7/8/2016,Confirmed,Influenza - Avian,H5N1 HPAI,"domestic, turkey",,6,,6,,,,,
213708,National authorities,27.12,31.23,Africa,Egypt,Assiut,Assiut,Centroid Admin2,6/22/2016,6/23/2016,Confirmed,Influenza - Avian,H5N1 HPAI,"domestic, duck",,10,,10,,,,,
212279,National authorities,27.12,31.23,Africa,Egypt,Assiut,Assiut,Centroid Admin2,5/11/2016,5/13/2016,Confirmed,Influenza - Avian,H5N1 HPAI,"domestic, turkey",,10,,10,,,,,
211676,National authorities,27.12,31.23,Africa,Egypt,Assiut,Assiut,Centroid Admin2,3/24/2016,3/26/2016,Confirmed,Influenza - Avian,H5N1 HPAI,"domestic, turkey",,10,,10,,,,,
221017,National authorities,27.12,31.23,Africa,Egypt,Assiut,Assiut,Centroid Admin2,12/21/2016,12/22/2016,Confirmed,Influenza - Avian,H5N1 HPAI,"domestic, duck",,10,,10,,,,,
215619,National authorities,27.12,31.23,Africa,Egypt,Assiut,Assiut,Centroid Admin2,8/3/2016,8/4/2016,Confirmed,Influenza - Avian,H5N1 HPAI,"domestic, duck",,10,,10,,,,,
213351,National authorities,27.12,31.23,Africa,Egypt,Assiut,Assiut,Centroid Admin2,6/9/2016,6/10/2016,Confirmed,Influenza - Avian,H5N1 HPAI,"domestic, duck",,10,,10,,,,,
211894,National authorities,27.12,31.23,Africa,Egypt,Assiut,Assiut,Centroid Admin2,4/20/2016,4/22/2016,Confirmed,Influenza - Avian,H5N1 HPAI,"domestic, duck, domestic, turkey, domestic, unspecified bird",,20,,20,,,,,
216416,OIE,43.41,-0.97,Europe,France,Aquitaine,Athos Aspis,Exact,9/6/2016,9/15/2016,Confirmed,Influenza - Avian,H5N3 LPAI,"domestic, unspecified bird",6000,0,0,6000,0,,,,
226710,National authorities,28.64,30.81,Africa,Egypt,Menia,Atnia,Centroid Admin2,4/4/2017,4/5/2017,Confirmed,Influenza - Avian,H5N1 HPAI,"domestic, goose",,2,,2,,,,,
211135,National authorities,28.64,30.81,Africa,Egypt,Menia,Atnia,Centroid Admin2,2/26/2016,2/28/2016,Confirmed,Influenza - Avian,H5N1 HPAI,"domestic, chicken, domestic, duck, domestic, unspecified bird",,30,,30,,,,,
222677,OIE,43.67,-0.49,Europe,France,Aquitaine,Aubagnan,Unknown,1/17/2017,1/20/2017,Confirmed,Influenza - Avian,H5N8 HPAI,"domestic, unspecified bird",6300,0,0,6300,0,,,,
209337,OIE,43.67,-0.49,Europe,France,Aquitaine,Aubagnan,Exact,12/14/2015,12/22/2015,Confirmed,Influenza - Avian,H5N2 HPAI,"domestic, unspecified bird",770,0,0,770,0,,,,
224139,OIE,43.67,-0.49,Europe,France,Aquitaine,Audignon,Unknown,2/13/2017,2/17/2017,Confirmed,Influenza - Avian,H5N8 HPAI,"domestic, duck",30000,,35,29965,,,,,
220081,OIE,48.58,10.87,Europe,Germany,Bayern,Augsburg,Exact,11/22/2016,12/2/2016,Confirmed,Influenza - Avian,H5N8 HPAI,"wild,mute swan (cygnus olor))",,1,1,0,0,,,,
225729,OIE,43.39,-0.97,Europe,France,Aquitaine,Autevielle-Saint-Martin-Bideren,Exact,3/10/2017,3/28/2017,Confirmed,Influenza - Avian,H5N8 HPAI,"environmental sample, unspecified bird",0,0,0,0,0,,,,
222003,OIE,43.44,0.27,Europe,France,Midi-Pyrenees,Aux-Aussat,Unknown,1/10/2017,1/13/2017,Confirmed,Influenza - Avian,H5N8 HPAI,"domestic, unspecified bird",12000,0,0,0,0,,,,
220800,OIE,43.75,0.07,Europe,France,Midi-Pyrenees,Averon Bergelle,Unknown,12/11/2016,12/15/2016,Confirmed,Influenza - Avian,H5N8 HPAI,"domestic, duck",800,72,72,728,0,,,,
209332,OIE,43.75,0.07,Europe,France,Midi-Pyrenees,Averon Bergelle,Exact,12/12/2015,12/22/2015,Confirmed,Influenza - Avian,H5N2 HPAI,"domestic, unspecified bird",700,0,0,700,0,,,,
224007,OIE,32.53,34.99,Asia,Israel,Haifa,Avi'El,Unknown,2/2/2017,2/16/2017,Confirmed,Influenza - Avian,H5N8 HPAI,"domestic, turkey",52000,,3000,49000,0,,,,
228424,National authorities,26.55,31.66,Africa,Egypt,Suhag,Awlad Nossier,Centroid Admin2,5/22/2017,5/25/2017,Confirmed,Influenza - Avian,H5N1 HPAI,"domestic, chicken",,20,,20,,,,,
226261,OIE,44.37,26.44,Europe,Romania,Calarasi,Axintele,Exact,3/29/2017,4/12/2017,Confirmed,Influenza - Avian,H5N8 HPAI,"wild,mute swan (cygnus olor))",,1,1,0,0,,,,
221980,OIE,9.62,76.64,Asia,India,Kerala,Aymanam,Centroid Admin2,10/26/2016,1/12/2017,Confirmed,Influenza - Avian,H5N8 HPAI,"domestic, unspecified bird",34388,6197,6197,28191,0,,,,
209329,OIE,43.86,-0.04,Europe,France,Midi-Pyrenees,Ayzieu,Exact,12/11/2015,12/22/2015,Confirmed,Influenza - Avian,H5N2 HPAI,"domestic, unspecified bird",0,0,0,0,0,,,,
212610,National authorities,29.30,30.89,Africa,Egypt,Fayoum,Azab,Centroid Admin2,5/16/2016,5/18/2016,Confirmed,Influenza - Avian,H5N1 HPAI,"domestic, chicken",,1000,,1000,,,,,
221020,National authorities,26.14,32.45,Africa,Egypt,Qena,Azazia,Centroid Admin2,12/23/2016,12/24/2016,Confirmed,Influenza - Avian,H5N1 HPAI,"domestic, chicken",,8,,8,,,,,
211811,National authorities,26.14,32.45,Africa,Egypt,Qena,Azazia,Centroid Admin2,4/5/2016,4/8/2016,Confirmed,Influenza - Avian,H5N1 HPAI,"domestic, turkey",,10,,10,,,,,
227383,National authorities,26.14,32.45,Africa,Egypt,Qena,Azazia,Centroid Admin2,4/24/2017,4/25/2017,Confirmed,Influenza - Avian,H5N1 HPAI,"domestic, duck",,84,,84,,,,,
209708,National authorities,26.14,32.45,Africa,Egypt,Qena,Azazia,Centroid Admin2,1/6/2016,1/7/2016,Confirmed,Influenza - Avian,H5N1 HPAI,"domestic, chicken, domestic, duck, domestic, unspecified bird",,40,,40,,,,,
226715,National authorities,26.14,32.45,Africa,Egypt,Qena,Azazia,Centroid Admin2,4/6/2017,4/7/2017,Confirmed,Influenza - Avian,H5N1 HPAI,"domestic, duck",,20,,20,,,,,
216714,National authorities,-3.33,102.45,Asia,Indonesia,Bengkulu,Babakan Baru,Exact,12/9/2015,12/9/2015,Confirmed,Influenza - Avian,H5N1 HPAI,"domestic, duck",,,150,,,,,,
216713,National authorities,-3.33,102.45,Asia,Indonesia,Bengkulu,Babakan Baru,Exact,12/9/2015,12/9/2015,Confirmed,Influenza - Avian,H5N1 HPAI,"domestic, chicken",,,500,,,,,,
223097,OIE,46.59,26.93,Europe,Romania,Bacau,Bacau,Exact,1/27/2017,2/1/2017,Confirmed,Influenza - Avian,H5N8 HPAI,"domestic, unspecified bird",103,28,28,75,0,,,,
222324,OIE,46.59,26.93,Europe,Romania,Bacau,Bacau,Exact,1/3/2017,1/12/2017,Confirmed,Influenza - Avian,H5N8 HPAI,"wild, whooper swan",,3,3,0,0,,,,
208395,National authorities,24.79,113.59,Asia,China,Guangdong Sheng,Bachang Market,Exact,6/30/2015,11/12/2015,Confirmed,Influenza - Avian,H5N6 HPAI,"domestic, duck, domestic, chicken",,2,,,,,,,
224322,OIE,46.25,18.96,Europe,Hungary,Bacs-Kiskun,Bacs-Kiskun,Exact,1/17/2017,2/24/2017,Confirmed,Influenza - Avian,H5N8 HPAI,"domestic, duck",40577,3229,1929,38648,0,,,,
221670,OIE,46.25,18.96,Europe,Hungary,Bacs-Kiskun,Bacs-Kiskun,Unknown,12/15/2016,12/29/2016,Confirmed,Influenza - Avian,H5N8 HPAI,"domestic, chicken",167000,0,0,0,0,,,,
221665,OIE,46.25,18.96,Europe,Hungary,Bacs-Kiskun,Bacs-Kiskun,Unknown,12/12/2016,12/29/2016,Confirmed,Influenza - Avian,H5N8 HPAI,"domestic, duck",12000,0,0,0,0,,,,
220792,OIE,46.25,18.96,Europe,Hungary,Bacs-Kiskun,Bacs-Kiskun,Unknown,12/9/2016,12/15/2016,Confirmed,Influenza - Avian,H5N8 HPAI,"domestic, duck",9820,0,0,0,0,,,,
221634,OIE,46.25,18.96,Europe,Hungary,Bacs-Kiskun,Bacs-Kiskun,Unknown,12/7/2016,12/29/2016,Confirmed,Influenza - Avian,H5N8 HPAI,"domestic, duck",1328,0,0,0,0,,,,
221633,OIE,46.25,18.96,Europe,Hungary,Bacs-Kiskun,Bacs-Kiskun,Unknown,12/7/2016,12/29/2016,Confirmed,Influenza - Avian,H5N8 HPAI,"domestic, duck",5100,0,0,0,0,,,,
220776,OIE,46.25,18.96,Europe,Hungary,Bacs-Kiskun,Bacs-Kiskun,Unknown,12/7/2016,12/15/2016,Confirmed,Influenza - Avian,H5N8 HPAI,"domestic, duck",5400,0,0,0,0,,,,
220481,OIE,46.25,18.96,Europe,Hungary,Bacs-Kiskun,Bacs-Kiskun,Exact,12/7/2016,12/14/2016,Confirmed,Influenza - Avian,H5N8 HPAI,"domestic, duck",13620,0,0,0,0,,,,
220475,OIE,46.25,18.96,Europe,Hungary,Bacs-Kiskun,Bacs-Kiskun,Exact,12/7/2016,12/14/2016,Confirmed,Influenza - Avian,H5N8 HPAI,"domestic, duck",3000,0,0,0,0,,,,
220472,OIE,46.25,18.96,Europe,Hungary,Bacs-Kiskun,Bacs-Kiskun,Exact,12/7/2016,12/14/2016,Confirmed,Influenza - Avian,H5N8 HPAI,"domestic, duck",11000,0,0,0,0,,,,
221631,OIE,46.25,18.96,Europe,Hungary,Bacs-Kiskun,Bacs-Kiskun,Unknown,12/5/2016,12/29/2016,Confirmed,Influenza - Avian,H5N8 HPAI,"domestic, duck",7200,0,0,0,0,,,,
220464,OIE,46.25,18.96,Europe,Hungary,Bacs-Kiskun,Bacs-Kiskun,Exact,12/5/2016,12/14/2016,Confirmed,Influenza - Avian,H5N8 HPAI,"domestic, duck",20200,0,0,0,0,,,,
220460,OIE,46.25,18.96,Europe,Hungary,Bacs-Kiskun,Bacs-Kiskun,Exact,12/5/2016,12/14/2016,Confirmed,Influenza - Avian,H5N8 HPAI,"domestic, duck",4000,0,0,0,0,,,,
220459,OIE,46.25,18.96,Europe,Hungary,Bacs-Kiskun,Bacs-Kiskun,Exact,12/5/2016,12/14/2016,Confirmed,Influenza - Avian,H5N8 HPAI,"domestic, duck",13800,0,0,0,0,,,,
220458,OIE,46.25,18.96,Europe,Hungary,Bacs-Kiskun,Bacs-Kiskun,Exact,12/5/2016,12/14/2016,Confirmed,Influenza - Avian,H5N8 HPAI,"domestic, duck",4300,0,0,0,0,,,,
220457,OIE,46.25,18.96,Europe,Hungary,Bacs-Kiskun,Bacs-Kiskun,Exact,12/5/2016,12/14/2016,Confirmed,Influenza - Avian,H5N8 HPAI,"domestic, duck",9700,0,0,0,0,,,,
220455,OIE,46.25,18.96,Europe,Hungary,Bacs-Kiskun,Bacs-Kiskun,Exact,12/5/2016,12/14/2016,Confirmed,Influenza - Avian,H5N8 HPAI,"domestic, goose",860,0,0,0,0,,,,
220453,OIE,46.25,18.96,Europe,Hungary,Bacs-Kiskun,Bacs-Kiskun,Exact,12/5/2016,12/14/2016,Confirmed,Influenza - Avian,H5N8 HPAI,"domestic, duck",15500,0,0,0,0,,,,
220452,OIE,46.25,18.96,Europe,Hungary,Bacs-Kiskun,Bacs-Kiskun,Exact,12/5/2016,12/14/2016,Confirmed,Influenza - Avian,H5N8 HPAI,"domestic, duck",3700,0,0,0,0,,,,
220451,OIE,46.25,18.96,Europe,Hungary,Bacs-Kiskun,Bacs-Kiskun,Exact,12/5/2016,12/14/2016,Confirmed,Influenza - Avian,H5N8 HPAI,"domestic, duck",5550,0,0,0,0,,,,
220444,OIE,46.25,18.96,Europe,Hungary,Bacs-Kiskun,Bacs-Kiskun,Exact,12/5/2016,12/13/2016,Confirmed,Influenza - Avian,H5N8 HPAI,"domestic, goose",1000,0,0,0,0,,,,
220420,OIE,46.25,18.96,Europe,Hungary,Bacs-Kiskun,Bacs-Kiskun,Exact,11/29/2016,12/13/2016,Confirmed,Influenza - Avian,H5N8 HPAI,"domestic, goose",600,0,0,0,0,,,,
220418,OIE,46.25,18.96,Europe,Hungary,Bacs-Kiskun,Bacs-Kiskun,Exact,11/29/2016,12/13/2016,Confirmed,Influenza - Avian,H5N8 HPAI,"domestic, duck",1700,0,0,0,0,,,,
220184,OIE,46.25,18.96,Europe,Hungary,Bacs-Kiskun,Bacs-Kiskun,Exact,11/27/2016,12/7/2016,Confirmed,Influenza - Avian,H5N8 HPAI,"domestic, duck",7000,0,0,0,0,,,,
220183,OIE,46.25,18.96,Europe,Hungary,Bacs-Kiskun,Bacs-Kiskun,Exact,11/26/2016,12/7/2016,Confirmed,Influenza - Avian,H5N8 HPAI,"domestic, duck",5840,0,0,5840,0,,,,
220182,OIE,46.25,18.96,Europe,Hungary,Bacs-Kiskun,Bacs-Kiskun,Exact,11/26/2016,12/7/2016,Confirmed,Influenza - Avian,H5N8 HPAI,"domestic, duck",7100,0,0,7100,0,,,,
220168,OIE,46.25,18.96,Europe,Hungary,Bacs-Kiskun,Bacs-Kiskun,Exact,11/24/2016,12/7/2016,Confirmed,Influenza - Avian,H5N8 HPAI,"domestic, duck",20000,0,0,0,0,,,,
223434,OIE,50.20,10.07,Europe,Germany,Bayern,Bad Kissingen,Exact,1/24/2017,2/3/2017,Confirmed,Influenza - Avian,H5N8 HPAI,"wild, swan, wild, wild duck",,2,2,0,0,,0,,
223381,OIE,50.33,11.64,Europe,Germany,Bayern,Bad Steben,Exact,1/28/2017,2/3/2017,Confirmed,Influenza - Avian,H5N8 HPAI,"domestic, chicken",22,14,14,8,0,,,,
216637,National authorities,3.51,117.10,Asia,Indonesia,Kalimantan Timur,Badan Bikis,Exact,4/19/2016,4/19/2016,Confirmed,Influenza - Avian,H5N1 HPAI,"domestic, chicken",,50,50,,,,,,
211751,National authorities,28.95,30.85,Africa,Egypt,Beni Suef,Badhel,Centroid Admin2,3/31/2016,4/1/2016,Confirmed,Influenza - Avian,H5N1 HPAI,"domestic, chicken",,10,,10,,,,,
211896,National authorities,29.83,31.24,Africa,Egypt,Giza,Badrasheen,Centroid Admin2,4/20/2016,4/22/2016,Confirmed,Influenza - Avian,H5N1 HPAI,"domestic, duck",,10,,10,,,,,
213349,National authorities,29.83,31.24,Africa,Egypt,Giza,Badrashin,Centroid Admin2,6/8/2016,6/9/2016,Confirmed,Influenza - Avian,H5N1 HPAI,"domestic, duck",,10,,10,,,,,
212684,National authorities,29.83,31.24,Africa,Egypt,Giza,Badrashin,Centroid Admin2,5/25/2016,5/27/2016,Confirmed,Influenza - Avian,H5N1 HPAI,"domestic, duck",,10,,10,,,,,
216602,National authorities,5.51,10.45,Africa,Cameroon,Ouest,Bafoussam,Centroid Admin2,,9/15/2016,Denied,Influenza - Avian,H5N1 HPAI,,,,,,,,,3,
212731,FAO Field Officer,5.51,10.45,Africa,Cameroon,Ouest,Bafoussam,Exact,5/31/2016,5/31/2016,Confirmed,Influenza - Avian,H5N1 HPAI,"domestic, chicken",428,61,61,367,,,,,
221517,FAO Field Officer,1.47,101.48,Asia,Indonesia,Riau,Bagan Besar,Exact,11/9/2016,11/9/2016,Confirmed,Influenza - Avian,H5N1 HPAI,"domestic, chicken",,,3,,,,,,
210442,OIE,12.16,8.14,Africa,Nigeria,Kano,Bagwai,Exact,2/3/2016,2/8/2016,Confirmed,Influenza - Avian,H5N1 HPAI,"domestic, chicken",450,85,85,365,0,,,,
223033,OIE,43.67,-0.36,Europe,France,Aquitaine,Bahus Soubiran,Exact,1/17/2017,1/27/2017,Confirmed,Influenza - Avian,H5N8 HPAI,"domestic, duck",980,0,0,980,0,,,,
222667,OIE,43.67,-0.36,Europe,France,Aquitaine,Bahus Soubiran,Unknown,1/13/2017,1/20/2017,Confirmed,Influenza - Avian,H5N8 HPAI,"domestic, chicken",6000,100,100,5900,0,,,,
221965,OIE,43.67,-0.36,Europe,France,Aquitaine,Bahus Soubiran,Exact,1/6/2017,1/13/2017,Confirmed,Influenza - Avian,H5N8 HPAI,"domestic, duck",8000,,50,0,,,,,
221957,OIE,43.67,-0.36,Europe,France,Aquitaine,Bahus Soubiran,Exact,1/4/2017,1/13/2017,Confirmed,Influenza - Avian,H5N8 HPAI,"domestic, duck",4100,,41,4059,,,,,
225066,OIE,43.69,-0.79,Europe,France,Aquitaine,Baigts,Exact,3/1/2017,3/10/2017,Confirmed,Influenza - Avian,H5N8 HPAI,"domestic, duck",0,0,0,0,0,,,,
224644,OIE,43.69,-0.79,Europe,France,Aquitaine,Baigts,Exact,2/20/2017,3/3/2017,Confirmed,Influenza - Avian,H5N8 HPAI,"domestic, duck",0,0,0,0,0,,,,
224643,OIE,43.69,-0.79,Europe,France,Aquitaine,Baigts,Exact,2/20/2017,3/3/2017,Confirmed,Influenza - Avian,H5N8 HPAI,"domestic, duck",0,0,0,0,0,,,,
224201,OIE,43.69,-0.79,Europe,France,Aquitaine,Baigts,Exact,2/14/2017,2/24/2017,Confirmed,Influenza - Avian,H5N8 HPAI,"domestic, duck",0,0,0,0,0,,,,
224099,OIE,43.69,-0.79,Europe,France,Aquitaine,Baigts,Unknown,2/6/2017,2/17/2017,Confirmed,Influenza - Avian,H5N8 HPAI,"domestic, duck",6240,0,0,6240,0,,,,
228525,National authorities,23.98,106.71,Asia,China,Guangxi Zhuangzu Zizhiqu,Baise,Centroid Admin2,,6/16/2017,Confirmed,Influenza - Avian,H7N9 LPAI,,,,,,,Male,55,1,1
228143,National authorities,23.98,106.71,Asia,China,Guangxi Zhuangzu Zizhiqu,Baise,Centroid Admin2,5/25/2017,6/2/2017,Confirmed,Influenza - Avian,H7N9 LPAI,,,,,,,Male,49,1,1
225032,National authorities,23.98,106.71,Asia,China,Guangxi Zhuangzu Zizhiqu,Baise,Unknown,3/1/2017,3/10/2017,Confirmed,Influenza - Avian,H7N9 LPAI,,,,,,,,,1,
224673,National authorities,23.98,106.71,Asia,China,Guangxi Zhuangzu Zizhiqu,Baise,Unknown,2/19/2017,3/6/2017,Confirmed,Influenza - Avian,H7N9 LPAI,,,,,,,,,1,
228555,OIE,50.38,3.70,Europe,Belgium,Region Wallonne,Baisieux,Exact,6/16/2017,6/19/2017,Confirmed,Influenza - Avian,H5N8 HPAI,"domestic, unspecified bird",26,21,21,5,0,,,,
228610,National authorities,26.67,106.62,Asia,China,Guizhou Sheng,"Baiyun District, Guiyang City",Centroid Admin2,6/15/2017,6/19/2017,Confirmed,Influenza - Avian,H7N9 LPAI,,,,,,,Male,33,1,
224992,OIE,11.55,7.44,Africa,Nigeria,Katsina,Bakori,Exact,3/1/2017,3/13/2017,Confirmed,Influenza - Avian,H5N1 HPAI,"domestic, chicken",3198,320,320,2878,,,0,,
207507,OIE,11.55,7.44,Africa,Nigeria,Katsina,Bakori,Exact,2/21/2015,9/19/2015,Confirmed,Influenza - Avian,H5N1 HPAI,"domestic, chicken",650,120,120,530,0,,,,
207509,OIE,11.55,7.44,Africa,Nigeria,Katsina,Bakori,Exact,2/23/2015,9/19/2015,Confirmed,Influenza - Avian,H5N1 HPAI,"domestic, chicken",2500,1400,1400,1100,0,,,,
223488,OIE,36.63,52.65,Asia,Iran  (Islamic Republic Of),Mazandaran,Balakasgarmahalle,Exact,1/12/2017,2/13/2017,Confirmed,Influenza - Avian,H5N8 HPAI,"domestic, ostrich",111,50,16,95,0,,,,
216654,National authorities,-5.13,120.25,Asia,Indonesia,Sulawesi Selatan,Balangnipa,Exact,4/30/2016,4/30/2016,Confirmed,Influenza - Avian,H5N1 HPAI,"domestic, chicken",,2,2,,,,,,
216655,National authorities,-5.13,120.25,Asia,Indonesia,Sulawesi Selatan,Balangnipa,Exact,4/22/2016,4/22/2016,Confirmed,Influenza - Avian,H5N1 HPAI,"domestic, chicken",,17,17,,,,,,
224512,OIE,47.03,18.02,Europe,Hungary,Veszprem,BalatonalmaiDi,Exact,1/19/2017,2/28/2017,Confirmed,Influenza - Avian,H5N8 HPAI,"wild, greater white-fronted goose",,1,1,0,0,,,,
226628,National authorities,1.17,101.16,Asia,Indonesia,Riau,Balik Alam,Exact,3/23/2017,3/23/2017,Confirmed,Influenza - Avian,H5N1 HPAI,"domestic, chicken",,,200,,,,,,
226587,National authorities,1.17,101.16,Asia,Indonesia,Riau,Balik Alam,Exact,2/24/2017,2/24/2017,Confirmed,Influenza - Avian,H5N1 HPAI,"domestic, chicken",,,20,,,,,,
223341,OIE,43.55,-0.25,Europe,France,Aquitaine,Baliracq Maumusson,Exact,1/23/2017,2/3/2017,Confirmed,Influenza - Avian,H5N8 HPAI,"domestic, duck",7500,0,0,7500,0,,,,
224498,OIE,47.68,21.33,Europe,Hungary,Hajdu-Bihar,BalmazajvaiRos,Exact,1/10/2017,2/28/2017,Confirmed,Influenza - Avian,H5N8 HPAI,"wild, greater white-fronted goose",,1,1,0,0,,,,
216612,National authorities,-6.36,108.37,Asia,Indonesia,Jawa Barat,Balongan,Exact,4/5/2016,4/5/2016,Confirmed,Influenza - Avian,H5N1 HPAI,"domestic, chicken",,4,4,,,,,,
223096,OIE,44.76,26.18,Europe,Romania,Prahova,Balta Doamnei,Exact,1/27/2017,2/1/2017,Confirmed,Influenza - Avian,H5N8 HPAI,"domestic, unspecified bird",264,58,58,206,0,,,,
225666,OIE,49.92,10.78,Europe,Germany,Bayern,Bamberg,Exact,3/15/2017,3/23/2017,Confirmed,Influenza - Avian,H5N8 HPAI,"wild, swan, wild, anatidae",,2,2,0,0,,,,
211715,OIE,9.83,8.86,Africa,Nigeria,Plateau,Bamkap,Exact,4/1/2016,4/3/2016,Confirmed,Influenza - Avian,H5N1 HPAI,"domestic, chicken",4878,76,76,4802,0,,,,
226042,National authorities,30.45,31.20,Africa,Egypt,Kalyoubia,Banah Market,Centroid Admin2,3/20/2017,3/22/2017,Confirmed,Influenza - Avian,H5N1 HPAI,"domestic, chicken",,10,,10,,,,,
216678,National authorities,-4.71,104.99,Asia,Indonesia,Lampung,Bandar Abung,Exact,6/14/2016,6/14/2016,Confirmed,Influenza - Avian,H5N1 HPAI,"domestic, chicken",,15,15,,,,,,
216738,National authorities,-4.43,104.36,Asia,Indonesia,Lampung,Bandar Sari,Exact,1/18/2016,1/18/2016,Confirmed,Influenza - Avian,H5N1 HPAI,"domestic, chicken",,,203,,,,,,
228434,National authorities,30.45,31.20,Africa,Egypt,Kalyoubia,Bandr Banha,Centroid Admin2,6/5/2017,6/6/2017,Confirmed,Influenza - Avian,H5N1 HPAI,"domestic, turkey",,16,,16,,,,,
207815,OIE,10.70,-4.78,Africa,Burkina Faso,Cascades,Banfora,Exact,6/1/2015,10/2/2015,Confirmed,Influenza - Avian,H5N1 HPAI,"domestic, unspecified bird",5000,2119,2119,0,2528,,,,
209729,OIE,21.73,106.48,Asia,Viet Nam,Lang Son,Bang Huu,Exact,1/2/2016,1/15/2016,Confirmed,Influenza - Avian,H5N6 HPAI,"domestic, unspecified bird",220,155,155,65,0,,,,
229617,National authorities,1.02,104.60,Asia,Indonesia,Kepulauan-Riau,Bangka,Centroid Admin2,,5/31/2017,Confirmed,Influenza - Avian,H5N1 HPAI,"domestic, chicken",,,12,,,,,,
226600,National authorities,-6.49,108.28,Asia,Indonesia,Jawa Barat,Bangkallir,Exact,3/14/2017,3/14/2017,Confirmed,Influenza - Avian,H5N1 HPAI,"domestic, duck",,,215,,,,,,
215000,National authorities,30.13,31.34,Africa,Egypt,Cairo,Banha,Centroid Admin2,7/10/2016,7/12/2016,Confirmed,Influenza - Avian,H5N1 HPAI,"domestic, chicken",,5000,,5000,,,,,
214112,National authorities,30.13,31.34,Africa,Egypt,Cairo,Banha,Centroid Admin2,7/4/2016,7/5/2016,Confirmed,Influenza - Avian,H5N1 HPAI,"domestic, duck",,10,,10,,,,,
226722,National authorities,30.13,31.34,Africa,Egypt,Cairo,Banha,Centroid Admin2,4/10/2017,4/11/2017,Confirmed,Influenza - Avian,H5N1 HPAI,"domestic, turkey",,10,,10,,,,,
209718,National authorities,30.13,31.34,Africa,Egypt,Cairo,Banha,Centroid Admin2,1/10/2016,1/14/2016,Confirmed,Influenza - Avian,H5N1 HPAI,"domestic, duck",,9,,9,,,,,
209539,National authorities,26.79,31.45,Africa,Egypt,Suhag,Bani Amar,Centroid Admin2,12/31/2015,1/2/2016,Confirmed,Influenza - Avian,H5N1 HPAI,"domestic, chicken",,5500,,5500,,,,,
223129,National authorities,29.09,31.07,Africa,Egypt,Beni Suef,Bani Anan,Centroid Admin2,1/26/2017,1/26/2017,Confirmed,Influenza - Avian,H5N1 HPAI,"domestic, chicken",,40,,40,,,,,
223593,National authorities,29.09,31.07,Africa,Egypt,Beni Suef,Bani Anan,Centroid Admin2,2/6/2017,2/7/2017,Confirmed,Influenza - Avian,H5N1 HPAI,"domestic, duck",,10,,10,,,,,
206597,National authorities,27.94,30.78,Africa,Egypt,Menia,Bani Ebid,Centroid Admin2,7/31/2015,8/2/2015,Confirmed,Influenza - Avian,H5N1 HPAI,"domestic, chicken",,,,,,,,,
227390,National authorities,28.52,30.75,Africa,Egypt,Menia,Bani Mazar,Centroid Admin2,4/28/2017,4/29/2017,Confirmed,Influenza - Avian,H5N1 HPAI,"domestic, goose",,35,,35,,,,,
226732,National authorities,28.52,30.75,Africa,Egypt,Menia,Bani Mazar,Centroid Admin2,4/14/2017,4/15/2017,Confirmed,Influenza - Avian,H5N1 HPAI,"domestic, duck",,10,,10,,,,,
213350,National authorities,28.52,30.75,Africa,Egypt,Menia,Bani Mazar,Centroid Admin2,6/9/2016,6/10/2016,Confirmed,Influenza - Avian,H5N1 HPAI,"domestic, duck",,20,,20,,,,,
229619,National authorities,-7.36,109.66,Asia,Indonesia,Jawa Tengah,Banjarnegara,Centroid Admin2,,5/31/2017,Confirmed,Influenza - Avian,H5N1 HPAI,"domestic, chicken",,,39,,,,,,
208532,OIE,34.89,126.64,Asia,Republic Of Korea,Chollanam-Do,Bannam-Myeon,Exact,10/23/2015,11/16/2015,Confirmed,Influenza - Avian,H5N8 HPAI,"domestic, unspecified bird",15600,,0,15600,0,,,,
223993,OIE,43.63,1.75,Europe,France,Midi-Pyrenees,Bannieres,Unknown,2/6/2017,2/17/2017,Confirmed,Influenza - Avian,H5N1 LPAI,"domestic, duck",0,0,0,0,0,,,,
224240,OIE,43.73,-0.62,Europe,France,Aquitaine,Banos,Exact,2/17/2017,2/24/2017,Confirmed,Influenza - Avian,H5N8 HPAI,"domestic, duck",0,0,0,0,0,,,,
223366,OIE,43.73,-0.62,Europe,France,Aquitaine,Banos,Exact,1/19/2017,2/3/2017,Confirmed,Influenza - Avian,H5N1 LPAI,"domestic, duck",0,0,0,0,0,,,,
223412,OIE,48.05,18.22,Europe,Slovakia,Nitra,Banov,Exact,1/23/2017,2/5/2017,Confirmed,Influenza - Avian,H5N8 HPAI,"wild,mute swan (cygnus olor))",,1,1,0,0,,,,
216748,National authorities,-6.57,107.91,Asia,Indonesia,Jawa Barat,Bantarwaru,Exact,2/22/2016,2/22/2016,Confirmed,Influenza - Avian,H5N1 HPAI,"domestic, quail",,,127,,,,,,
216727,National authorities,-4.08,104.18,Asia,Indonesia,Sumatera Selatan,Banu Ayu,Exact,12/28/2015,12/28/2015,Confirmed,Influenza - Avian,H5N1 HPAI,"domestic, quail",,,1000,,,,,,
218751,National authorities,-7.80,110.18,Asia,Indonesia,Daerah Istimewa Yogyakarta,Banyuroto,Exact,9/6/2016,9/6/2016,Confirmed,Influenza - Avian,H5N1 HPAI,"domestic, chicken",,,27,,,,,,
217077,National authorities,-7.80,110.18,Asia,Indonesia,Daerah Istimewa Yogyakarta,Banyuroto,Exact,8/12/2016,8/12/2016,Confirmed,Influenza - Avian,H5N1 HPAI,"domestic, duck",,,30,,,,,,
216428,National authorities,22.36,104.16,Asia,Viet Nam,Lao Cai,Bao Thang And Bao Yen District,Centroid Admin1,8/29/2016,9/15/2016,Confirmed,Influenza - Avian,H5N6 HPAI,"domestic, unspecified bird",,,6404,,,,,,
209470,National authorities,22.56,113.88,Asia,China,Guangdong Sheng,Baoan District,Exact,12/27/2015,1/4/2016,Confirmed,Influenza - Avian,H5N6 HPAI,,,,,,,,,1,1
227886,National authorities,38.87,115.47,Asia,China,Hebei Sheng,Baoding,Unknown,5/3/2017,5/12/2017,Confirmed,Influenza - Avian,H7N9 LPAI,,,,,,,,,1,1
227620,National authorities,38.87,115.47,Asia,China,Hebei Sheng,Baoding,Unknown,4/27/2017,5/5/2017,Confirmed,Influenza - Avian,H7N9 LPAI,,,,,,,,,1,
227618,National authorities,38.87,115.47,Asia,China,Hebei Sheng,Baoding,Unknown,4/25/2017,5/5/2017,Confirmed,Influenza - Avian,H7N9 LPAI,,,,,,,,,1,1
227617,National authorities,38.87,115.47,Asia,China,Hebei Sheng,Baoding,Unknown,4/24/2017,5/5/2017,Confirmed,Influenza - Avian,H7N9 LPAI,,,,,,,,,1,
228021,National authorities,38.87,115.47,Asia,China,Hebei Sheng,Baoding,Unknown,,4/30/2017,Confirmed,Influenza - Avian,H7N9 LPAI,"domestic, chicken",,1,,,,,,,
228490,National authorities,46.33,132.20,Asia,China,Heilongjiang Sheng,Baoqing County ,Unknown,6/16/2017,6/16/2017,Confirmed,Influenza - Avian,H7N9 HPAI,"domestic, chicken",36110,20150,19500,16610,,,0,,
225763,OIE,23.71,120.29,Asia,Taiwan (Province Of China),Taiwan Sheng,Baozhong Township,Exact,3/21/2017,3/27/2017,Confirmed,Influenza - Avian,H5N2 HPAI,"domestic, chicken",10314,600,600,9714,0,,,,
223405,OIE,23.71,120.29,Asia,Taiwan (Province Of China),Taiwan Sheng,Baozhong Township,Exact,1/16/2017,2/6/2017,Confirmed,Influenza - Avian,H5N2 HPAI,"domestic, chicken",10000,9000,9000,1000,0,,,,
208783,OIE,23.71,120.29,Asia,Taiwan (Province Of China),Taiwan Sheng,Baozhong Township,Unknown,1/28/2015,11/23/2015,Confirmed,Influenza - Avian,H5N2 LPAI,"domestic, unspecified bird",11355,,1300,10055,0,,,,
206735,OIE,55.06,78.53,Europe,Russian Federation,Novosibirskaya Oblast,"Barabinsk, Barabinsky",Exact,5/11/2015,8/21/2015,Confirmed,Influenza - Avian,H5N1 HPAI,"wild, rook",,1,0,1,0,,,,
222405,National authorities,31.05,31.47,Africa,Egypt,Dakahlia,Baramoun,Centroid Locality,1/5/2017,1/6/2017,Confirmed,Influenza - Avian,H5N1 HPAI,"domestic, chicken, domestic, duck, domestic, unspecified bird",,25,,25,,,,,
213341,National authorities,31.05,31.47,Africa,Egypt,Dakahlia,Baramoun,Centroid Admin2,5/31/2016,6/1/2016,Confirmed,Influenza - Avian,H5N1 HPAI,"domestic, chicken",,16,,16,,,,,
211609,National authorities,31.05,31.47,Africa,Egypt,Dakahlia,Baramoun,Centroid Admin2,3/21/2016,3/23/2016,Confirmed,Influenza - Avian,H5N1 HPAI,"domestic, chicken",,10,,10,,,,,
223495,OIE,36.59,52.46,Asia,Iran  (Islamic Republic Of),Mazandaran,Baran Jooje Farm,Exact,1/25/2017,2/13/2017,Confirmed,Influenza - Avian,H5N8 HPAI,"domestic, chicken",29503,6000,83,29420,0,,,,
216778,National authorities,-3.85,119.59,Asia,Indonesia,Sulawesi Selatan,Barang Palie,Exact,2/3/2016,2/3/2016,Confirmed,Influenza - Avian,H5N1 HPAI,"domestic, chicken",,,1000,,,,,,
221865,OIE,43.70,-0.23,Europe,France,Midi-Pyrenees,Barcelone Du Gers,Exact,12/23/2016,12/30/2016,Confirmed,Influenza - Avian,H5N8 HPAI,"domestic, duck",4400,255,255,0,0,,,,
221559,OIE,43.70,-0.23,Europe,France,Midi-Pyrenees,Barcelone Du Gers,Exact,12/17/2016,12/21/2016,Confirmed,Influenza - Avian,H5N8 HPAI,"domestic, duck",0,0,0,0,0,,,,
223046,OIE,43.38,0.41,Europe,France,Midi-Pyrenees,Barcugnan,Exact,1/19/2017,1/27/2017,Confirmed,Influenza - Avian,H5N8 HPAI,"wild, buzzard",,1,1,0,0,,,,
221862,OIE,43.38,0.41,Europe,France,Midi-Pyrenees,Barcugnan,Exact,12/22/2016,12/30/2016,Confirmed,Influenza - Avian,H5N8 HPAI,"domestic, duck",8000,0,0,0,0,,,,
224782,OIE,52.97,13.87,Europe,Germany,Brandenburg,Barnim,Unknown,3/2/2017,3/2/2017,Confirmed,Influenza - Avian,H5N8 HPAI,"wild, unspecified bird",,1,1,0,0,,,,
224909,OIE,45.40,-91.85,Americas,United States Of America,Wisconsin,Barron County,Unknown,3/2/2017,3/6/2017,Confirmed,Influenza - Avian,H5N2 LPAI,"domestic, turkey",84000,0,0,0,0,,,,
221945,OIE,43.51,0.30,Europe,France,Midi-Pyrenees,Bars,Exact,12/31/2016,1/9/2017,Confirmed,Influenza - Avian,H5N8 HPAI,"domestic, duck",5800,0,0,0,0,,,,
221564,OIE,43.51,0.30,Europe,France,Midi-Pyrenees,Bars,Exact,12/18/2016,12/21/2016,Confirmed,Influenza - Avian,H5N1 LPAI,"domestic, duck",9500,0,0,0,0,,,,
221562,OIE,43.51,0.30,Europe,France,Midi-Pyrenees,Bars,Exact,12/18/2016,12/21/2016,Confirmed,Influenza - Avian,H5N8 HPAI,"domestic, duck",5900,0,0,0,0,,,,
211278,National authorities,29.98,31.29,Africa,Egypt,Cairo,Basatin,Centroid Admin2,3/4/2016,3/10/2016,Confirmed,Influenza - Avian,H5N1 HPAI,,,,,,,,,1,
223787,OIE,9.87,8.73,Africa,Nigeria,Plateau,Bassa,Exact,2/14/2017,2/21/2017,Confirmed,Influenza - Avian,H5N1 HPAI,"domestic, chicken",1500,10,10,1490,0,,,,
210627,OIE,9.87,8.73,Africa,Nigeria,Plateau,Bassa,Exact,2/11/2016,2/15/2016,Confirmed,Influenza - Avian,H5N1 HPAI,"domestic, chicken",6884,200,200,6684,0,,,,
206777,OIE,5.69,-3.19,Africa,Ca´Te D'Ivoire,Comoe,"Bassam, Modeste, Aboisso",Centroid Admin2,7/17/2015,8/25/2015,Confirmed,Influenza - Avian,H5N1 HPAI,"domestic, chicken",27652,20286,20286,0,7366,,,,
228841,National authorities,50.76,5.62,Europe,Belgium,Region Wallonne,Bassenge,Unknown,7/5/2017,7/5/2017,Confirmed,Influenza - Avian,H5N8 HPAI,"domestic, unspecified bird",19,5,5,14,,,0,,
223026,OIE,43.55,-0.62,Europe,France,Aquitaine,Bassercles,Exact,1/12/2017,1/27/2017,Confirmed,Influenza - Avian,H5N8 HPAI,"domestic, duck",,,,,,,,,
223527,OIE,43.46,-0.07,Europe,France,Aquitaine,Bassillon Vauze,Exact,2/6/2017,2/10/2017,Confirmed,Influenza - Avian,H5N8 HPAI,"domestic, unspecified bird",,,,,,,,,
225548,OIE,43.35,-0.77,Europe,France,Aquitaine,Bastennes,Exact,3/9/2017,3/17/2017,Confirmed,Influenza - Avian,H5N2 LPAI,"environmental sample, unspecified bird",8000,0,0,8000,0,,,,
225056,OIE,43.35,-0.77,Europe,France,Aquitaine,Bastennes,Exact,2/23/2017,3/10/2017,Confirmed,Influenza - Avian,H5N8 HPAI,"domestic, duck",332,0,0,332,0,,,,
224225,OIE,43.35,-0.77,Europe,France,Aquitaine,Bastennes,Exact,2/16/2017,2/24/2017,Confirmed,Influenza - Avian,H5N8 HPAI,"domestic, duck",0,0,0,0,0,,,,
224182,OIE,43.35,-0.77,Europe,France,Aquitaine,Bastennes,Exact,2/13/2017,2/24/2017,Confirmed,Influenza - Avian,H5N8 HPAI,"domestic, duck",0,0,0,0,0,,,,
224181,OIE,43.35,-0.77,Europe,France,Aquitaine,Bastennes,Exact,2/13/2017,2/24/2017,Confirmed,Influenza - Avian,H5N8 HPAI,"domestic, duck",0,0,0,0,0,,,,
211496,OIE,12.26,7.30,Africa,Nigeria,Katsina,Batagarawa,Exact,3/8/2016,3/20/2016,Confirmed,Influenza - Avian,H5N1 HPAI,"domestic, chicken",51303,1364,1364,49939,0,,,,
210721,OIE,12.26,7.30,Africa,Nigeria,Katsina,Batagarawa,Exact,2/10/2016,2/17/2016,Confirmed,Influenza - Avian,H5N1 HPAI,"domestic, chicken",5000,60,60,4940,0,,,,
222660,OIE,43.66,-0.46,Europe,France,Aquitaine,Bats,Unknown,1/12/2017,1/20/2017,Confirmed,Influenza - Avian,H5N8 HPAI,"domestic, duck",0,0,0,0,0,,,,
222659,OIE,43.66,-0.46,Europe,France,Aquitaine,Bats,Unknown,1/12/2017,1/20/2017,Confirmed,Influenza - Avian,H5N8 HPAI,"domestic, unspecified bird",0,0,0,0,0,,,,
216726,National authorities,-4.15,104.15,Asia,Indonesia,Sumatera Selatan,Baturaja,Exact,12/21/2015,12/21/2015,Confirmed,Influenza - Avian,H5N1 HPAI,"domestic, chicken",,,700,,,,,,
221551,OIE,10.25,9.46,Africa,Nigeria,Bauchi,Bauchi,Centroid Locality,1/12/2017,2/6/2017,Confirmed,Influenza - Avian,H5N1 HPAI,"domestic, chicken",43,3,3,40,,,0,,
221550,OIE,10.25,9.46,Africa,Nigeria,Bauchi,Bauchi,Centroid Locality,1/10/2017,2/6/2017,Confirmed,Influenza - Avian,H5N1 HPAI,"domestic, chicken",120,6,6,114,,,0,,
207494,OIE,10.25,9.46,Africa,Nigeria,Bauchi,Bauchi,Exact,2/6/2015,9/19/2015,Confirmed,Influenza - Avian,H5N1 HPAI,"domestic, chicken",3030,652,652,2378,0,,,,
211092,OIE,10.25,9.46,Africa,Nigeria,Bauchi,Bauchi,Exact,3/1/2016,3/4/2016,Confirmed,Influenza - Avian,H5N1 HPAI,"domestic, chicken",248,5,5,243,0,,,,
224074,OIE,51.21,14.43,Europe,Germany,Sachsen,Bautzen,Exact,2/9/2017,2/10/2017,Confirmed,Influenza - Avian,H5N8 HPAI,"wild, unspecified bird",,3,3,0,0,,,,
230174,National authorities,29.09,31.07,Africa,Egypt,Beni Suef,Bayad El Arab,Centroid Admin2,6/10/2017,6/11/2017,Confirmed,Influenza - Avian,H5N1 HPAI,"domestic, turkey",,3000,,3000,,,,,
212944,FAO Field Officer,5.30,10.45,Africa,Cameroon,Ouest,Bayangam,Exact,5/31/2016,5/31/2016,Confirmed,Influenza - Avian,H5N1 HPAI,"domestic, unspecified bird, domestic, swine",12020,1500,1500,10520,,,,,
223061,OIE,11.11,105.70,Asia,Cambodia,Svay Rieng,Bayarb,Exact,1/25/2017,1/31/2017,Confirmed,Influenza - Avian,H5N1 HPAI,"domestic, unspecified bird",390,68,68,322,0,,0,,
220086,OIE,47.86,11.33,Europe,Germany,Bayern,Bayern,Exact,11/25/2016,12/2/2016,Confirmed,Influenza - Avian,H5N8 HPAI,"wild, wild duck",,1,1,0,0,,,,
208254,National authorities,29.65,91.07,Asia,China,Xizang Zizhiqu,Bayi Market,Exact,12/31/2014,11/2/2015,Confirmed,Influenza - Avian,H5N1 HPAI,"domestic, chicken",,1,,,,,,,
208253,National authorities,29.65,91.07,Asia,China,Xizang Zizhiqu,Bayi Market,Exact,12/31/2014,11/2/2015,Confirmed,Influenza - Avian,H5N1 HPAI,"domestic, chicken",,1,,,,,,,
208349,National authorities,29.65,91.07,Asia,China,Xizang Zizhiqu,Bayi Market,Exact,9/30/2014,11/9/2015,Confirmed,Influenza - Avian,"H5N6 HPAI, H5N1 HPAI","domestic, chicken, domestic, duck",,2,,,,,,,
209398,OIE,43.35,0.10,Europe,France,Midi-Pyrenees,Bazillac,Exact,12/18/2015,12/24/2015,Confirmed,Influenza - Avian,H5N1 HPAI,"domestic, unspecified bird",5600,3,3,0,0,,,,
210742,OIE,22.39,113.92,Asia,"Hong Kong, Sar",Administrative Unit Not Available,Beach Near Tin Hau Temple,Exact,2/14/2016,2/19/2016,Confirmed,Influenza - Avian,H5N6 HPAI,"domestic, unspecified bird",,4,4,0,0,,,,
223992,OIE,43.59,0.09,Europe,France,Midi-Pyrenees,Beaumarches,Unknown,2/6/2017,2/17/2017,Confirmed,Influenza - Avian,H5N1 LPAI,"domestic, duck",0,0,0,0,0,,,,
220096,OIE,43.59,0.09,Europe,France,Midi-Pyrenees,Beaumarches,Exact,12/1/2016,12/2/2016,Confirmed,Influenza - Avian,H5N8 HPAI,"domestic, chicken",690,100,100,590,0,,,,
219983,OIE,43.59,0.09,Europe,France,Midi-Pyrenees,Beaumarches,Exact,12/1/2016,12/2/2016,Confirmed,Influenza - Avian,H5N8 HPAI,"domestic, duck",690,100,100,590,0,,0,,
210871,OIE,44.99,0.65,Europe,France,Aquitaine,Beauregard Et Bassac,Exact,2/16/2016,2/23/2016,Confirmed,Influenza - Avian,H5N1 HPAI,"domestic, duck",6000,0,0,0,0,,,,
216629,National authorities,3.42,116.98,Asia,Indonesia,Kalimantan Timur,Bebakung,Exact,4/19/2016,4/19/2016,Confirmed,Influenza - Avian,H5N1 HPAI,"domestic, chicken",,51,51,,,,,,
216638,National authorities,3.45,117.25,Asia,Indonesia,Kalimantan Timur,Bebatu,Exact,4/19/2016,4/19/2016,Confirmed,Influenza - Avian,H5N1 HPAI,"domestic, chicken",,50,50,,,,,,
210386,OIE,11.67,8.26,Africa,Nigeria,Kano,Bebeji,Exact,1/29/2016,2/2/2016,Confirmed,Influenza - Avian,H5N1 HPAI,"domestic, chicken",200000,1562,1562,198438,0,,,,
222737,OIE,31.74,34.72,Asia,Israel,Southern District,Beer Toviyya,Unknown,12/8/2016,1/24/2017,Confirmed,Influenza - Avian,H5N8 HPAI,"wild, glossy ibis , wild, cattle egret",,2,2,0,0,,,,
222997,OIE,31.74,34.72,Asia,Israel,Southern District,Beer Toviyya,Exact,12/9/2016,12/25/2016,Confirmed,Influenza - Avian,H5N8 HPAI,"domestic, chicken",11000,,100,10900,0,,,,
222994,OIE,31.74,34.72,Asia,Israel,Southern District,Beer Toviyya,Exact,12/6/2016,12/25/2016,Confirmed,Influenza - Avian,H5N8 HPAI,"domestic, chicken",22000,2000,500,21500,0,,,,
224460,OIE,45.22,19.61,Europe,Serbia,Juzno-Backi,"Begecka Jama Park Prirode, Begec",Exact,2/8/2017,3/1/2017,Confirmed,Influenza - Avian,H5N8 HPAI,"wild,mallard,wild,grey heron,wild,great cormorant (phalacrocorax carbo))",,1,1,0,0,,,,
223552,National authorities,42.38,24.80,Europe,Bulgaria,Plovdiv,Begovo,Centroid Admin2,2/6/2017,2/14/2017,Confirmed,Influenza - Avian,H5N8 HPAI,"domestic, duck",,1250,,,,,0,,
228331,OIE,23.58,120.26,Asia,Taiwan (Province Of China),Taiwan Sheng,Beigang Township,Exact,5/25/2017,6/7/2017,Confirmed,Influenza - Avian,H5N2 HPAI,"domestic, chicken",8248,3300,3300,4948,0,,,,
225863,National authorities,21.45,109.16,Asia,China,Guangxi Zhuangzu Zizhiqu,Beihai,Exact,,3/31/2017,Confirmed,Influenza - Avian,H7N9 LPAI,"environmental sample, unspecified env. sample",,1,,,,,,,
225862,National authorities,21.45,109.16,Asia,China,Guangxi Zhuangzu Zizhiqu,Beihai,Exact,,3/31/2017,Confirmed,Influenza - Avian,H7N9 LPAI,"environmental sample, unspecified env. sample",,2,,,,,,,
225861,National authorities,21.45,109.16,Asia,China,Guangxi Zhuangzu Zizhiqu,Beihai,Exact,,3/31/2017,Confirmed,Influenza - Avian,H7N9 LPAI,"environmental sample, unspecified env. sample",,1,,,,,,,
227135,National authorities,33.23,116.06,Asia,China,Anhui Sheng,Beijing in Anhui,Centroid Admin2,4/15/2017,4/28/2017,Confirmed,Influenza - Avian,H7N9 LPAI,,,,,,,,,1,
227134,National authorities,33.23,116.06,Asia,China,Anhui Sheng,Beijing in Anhui,Centroid Admin2,4/8/2017,4/28/2017,Confirmed,Influenza - Avian,H7N9 LPAI,,,,,,,,,1,
223718,National authorities,40.27,116.59,Asia,China,Beijing Shi,Beijing,Centroid Admin1,2/1/2017,2/14/2017,Confirmed,Influenza - Avian,H7N9 LPAI,,,,,,,Male,48,1,
223671,National authorities,40.27,116.59,Asia,China,Beijing Shi,Beijing,Unknown,2/1/2017,2/13/2017,Confirmed,Influenza - Avian,H7N9 LPAI,,,,,,,Male,67,1,
227891,National authorities,40.27,116.59,Asia,China,Beijing Shi,Beijing,Centroid Admin1,5/2/2017,5/12/2017,Confirmed,Influenza - Avian,H7N9 LPAI,,,,,,,,,1,
227895,National authorities,40.27,116.59,Asia,China,Beijing Shi,Beijing,Unknown,5/2/2017,5/12/2017,Confirmed,Influenza - Avian,H7N9 LPAI,,,,,,,,,1,1
228608,National authorities,40.27,116.59,Asia,China,Beijing Shi,Beijing,Centroid Admin1,,6/23/2017,Confirmed,Influenza - Avian,H7N9 LPAI,,,,,,,Male,57,1,
228606,National authorities,40.27,116.59,Asia,China,Beijing Shi,Beijing,Centroid Admin1,,6/23/2017,Confirmed,Influenza - Avian,H7N9 LPAI,,,,,,,Male,31,1,
228528,National authorities,40.27,116.59,Asia,China,Beijing Shi,Beijing,Centroid Admin1,,6/16/2017,Confirmed,Influenza - Avian,H7N9 LPAI,,,,,,,Male,54,1,
228413,National authorities,40.27,116.59,Asia,China,Beijing Shi,Beijing,Centroid Admin1,5/30/2017,6/13/2017,Confirmed,Influenza - Avian,H7N9 LPAI,,,,,,,Male,27,1,
228411,National authorities,40.27,116.59,Asia,China,Beijing Shi,Beijing,Centroid Admin1,5/27/2017,6/13/2017,Confirmed,Influenza - Avian,H7N9 LPAI,,,,,,,Female,55,1,
228412,National authorities,40.27,116.59,Asia,China,Beijing Shi,Beijing,Centroid Admin1,5/20/2017,6/13/2017,Confirmed,Influenza - Avian,H7N9 LPAI,,,,,,,Male,16,1,
226879,National authorities,40.27,116.59,Asia,China,Beijing Shi,Beijing,Unknown,4/8/2017,4/18/2017,Confirmed,Influenza - Avian,H7N9 LPAI,,,,,,,,,1,
226878,National authorities,40.27,116.59,Asia,China,Beijing Shi,Beijing,Unknown,4/7/2017,4/18/2017,Confirmed,Influenza - Avian,H7N9 LPAI,,,,,,,,,1,
226877,National authorities,40.27,116.59,Asia,China,Beijing Shi,Beijing,Unknown,3/31/2017,4/18/2017,Confirmed,Influenza - Avian,H7N9 LPAI,,,,,,,,,1,
226197,National authorities,40.27,116.59,Asia,China,Beijing Shi,Beijing,Centroid Admin1,3/22/2017,4/7/2017,Confirmed,Influenza - Avian,H7N9 LPAI,,,,,,,,,1,
214802,National authorities,40.27,116.59,Asia,China,Beijing Shi,Beijing,Centroid Admin1,7/18/2016,7/27/2016,Confirmed,Influenza - Avian,H7N9 LPAI,,,,,,,Male,35,1,
213222,National authorities,40.27,116.59,Asia,China,Beijing Shi,Beijing,Centroid Admin1,,6/15/2016,Confirmed,Influenza - Avian,H7N9 LPAI,,,,,,,,,1,
223142,National authorities,41.80,120.75,Asia,China,Liaoning Sheng,"Beipiao City, Chaoyang City",Unknown,1/21/2017,1/30/2017,Confirmed,Influenza - Avian,H7N9 LPAI,,,,,,,Male,67,,
226613,National authorities,-8.77,120.92,Asia,Indonesia,Nusatenggara Timur,Beiwali,Exact,3/3/2017,3/3/2017,Confirmed,Influenza - Avian,H5N1 HPAI,"domestic, chicken",,,296,,,,,,
226612,National authorities,-8.77,120.92,Asia,Indonesia,Nusatenggara Timur,Beiwali,Exact,3/3/2017,3/3/2017,Confirmed,Influenza - Avian,H5N1 HPAI,"domestic, duck",,,589,,,,,,
208849,National authorities,43.82,87.58,Asia,China,Xinjiang Uygur Zizhiqu,Beiyuanchun Market,Exact,12/31/2014,11/2/2015,Confirmed,Influenza - Avian,H7N9 LPAI,"domestic, chicken",,1,,,,,,,
221680,OIE,46.59,21.00,Europe,Hungary,Bekes,Bekes,Unknown,12/22/2016,12/29/2016,Confirmed,Influenza - Avian,H5N8 HPAI,"domestic, turkey",13000,0,0,0,0,,,,
220436,OIE,46.59,21.00,Europe,Hungary,Bekes,Bekes,Exact,12/2/2016,12/13/2016,Confirmed,Influenza - Avian,H5N8 HPAI,"domestic, goose",450,0,0,0,0,,,,
220424,OIE,46.59,21.00,Europe,Hungary,Bekes,Bekes,Exact,11/29/2016,12/13/2016,Confirmed,Influenza - Avian,H5N8 HPAI,"domestic, goose",263,0,0,0,0,,,,
227385,National authorities,30.41,31.53,Africa,Egypt,Shrkia,Belbies,Centroid Admin2,4/27/2017,4/27/2017,Confirmed,Influenza - Avian,H5N1 HPAI,"domestic, turkey",,10,,10,,,,,
226734,National authorities,30.41,31.53,Africa,Egypt,Shrkia,Belbies,Centroid Admin2,4/13/2017,4/15/2017,Confirmed,Influenza - Avian,H5N1 HPAI,"domestic, turkey",,10,,10,,,,,
213929,National authorities,30.41,31.53,Africa,Egypt,Shrkia,Belbies,Centroid Admin2,6/23/2016,6/25/2016,Confirmed,Influenza - Avian,H5N1 HPAI,"domestic, duck",,10,,10,,,,,
226055,National authorities,30.41,31.53,Africa,Egypt,Shrkia,Belbies,Centroid Admin2,3/23/2017,3/25/2017,Confirmed,Influenza - Avian,H5N1 HPAI,"domestic, duck",,10,,10,,,,,
228427,National authorities,30.41,31.53,Africa,Egypt,Shrkia,Belbies,Centroid Admin2,5/25/2017,5/28/2017,Confirmed,Influenza - Avian,H5N1 HPAI,"domestic, chicken",,6,,6,,,,,
221946,OIE,43.46,0.44,Europe,France,Midi-Pyrenees,Belloc -Saint-Clamens,Exact,12/31/2016,1/13/2017,Confirmed,Influenza - Avian,H5N8 HPAI,"domestic, duck",32000,0,0,0,0,,,,
223980,OIE,43.46,0.44,Europe,France,Midi-Pyrenees,Belloc -Saint-Clamens,Unknown,2/8/2017,2/17/2017,Confirmed,Influenza - Avian,H5N8 HPAI,"wild, buzzard",,,1,0,0,,,,
221151,EC,42.23,24.79,Europe,Bulgaria,Plovdiv,Belozem,Centroid Admin1,12/27/2016,12/29/2016,Confirmed,Influenza - Avian,H5N8 HPAI,"domestic, duck",,16320,,16320,,,,,
221148,EC,42.23,24.79,Europe,Bulgaria,Plovdiv,Belozem,Centroid Admin2,12/23/2016,12/28/2016,Confirmed,Influenza - Avian,H5N8 HPAI,"domestic, duck",,15000,,15000,,,0,,
223154,OIE,51.89,5.89,Europe,Netherlands,Gelderland,Bemmel,Exact,1/19/2017,2/1/2017,Confirmed,Influenza - Avian,H5N8 HPAI,"wild, anatidae",,66,66,14,0,,,,
223008,OIE,31.95,34.92,Asia,Israel,Central District,Ben Shemen (Moshav),Exact,12/24/2016,12/25/2016,Confirmed,Influenza - Avian,H5N8 HPAI,"wild, buzzard",,1,1,0,0,,,,
221521,FAO Field Officer,-6.16,106.44,Asia,Indonesia,Banten,Benda,Exact,12/21/2016,12/21/2016,Confirmed,Influenza - Avian,H5N1 HPAI,"domestic, duck",,,1900,,,,,,
225067,OIE,43.64,-1.03,Europe,France,Aquitaine,Benesse Les Dax,Exact,3/1/2017,3/10/2017,Confirmed,Influenza - Avian,H5N8 HPAI,"domestic, duck",0,0,0,0,0,,,,
224108,OIE,43.64,-1.03,Europe,France,Aquitaine,Benesse Les Dax,Unknown,2/8/2017,2/17/2017,Confirmed,Influenza - Avian,H5N8 HPAI,"domestic, duck",6000,0,0,0,0,,,,
228136,National authorities,33.14,117.42,Asia,China,Anhui Sheng,Bengbu,Centroid Admin2,5/12/2017,6/2/2017,Confirmed,Influenza - Avian,H7N9 LPAI,,,,,,,Male,44,1,
228439,National authorities,28.52,30.75,Africa,Egypt,Menia,Beni Mazar,Centroid Admin2,6/9/2017,6/10/2017,Confirmed,Influenza - Avian,H5N1 HPAI,"domestic, duck",,10,,10,,,,,
228426,National authorities,28.52,30.75,Africa,Egypt,Menia,Beni Mazar,Centroid Admin2,5/26/2017,5/27/2017,Confirmed,Influenza - Avian,H5N1 HPAI,"domestic, chicken",,10,,10,,,,,
213709,National authorities,28.52,30.75,Africa,Egypt,Menia,Beni Mazar,Centroid Admin2,6/23/2016,6/24/2016,Confirmed,Influenza - Avian,H5N1 HPAI,"domestic, duck, domestic, turkey, domestic, unspecified bird",,16,,16,,,,,
218749,National authorities,-8.80,115.21,Asia,Indonesia,Bali,Benoa,Exact,9/26/2016,9/26/2016,Confirmed,Influenza - Avian,H5N1 HPAI,"domestic, chicken",,,6,,,,,,
223339,OIE,43.83,-0.50,Europe,France,Aquitaine,Benquet,Exact,1/20/2017,2/3/2017,Confirmed,Influenza - Avian,H5N8 HPAI,"domestic, unspecified bird",0,0,0,0,0,,,,
223338,OIE,43.83,-0.50,Europe,France,Aquitaine,Benquet,Exact,1/19/2017,2/3/2017,Confirmed,Influenza - Avian,H5N8 HPAI,"domestic, unspecified bird",0,0,0,0,0,,,,
223036,OIE,43.83,-0.50,Europe,France,Aquitaine,Benquet,Exact,1/19/2017,1/27/2017,Confirmed,Influenza - Avian,H5N8 HPAI,"domestic, duck",12000,0,0,12000,0,,,,
226629,National authorities,-6.13,120.50,Asia,Indonesia,Sulawesi Selatan,Benteng Utara,Centroid Admin2,3/8/2017,3/8/2017,Confirmed,Influenza - Avian,H5N1 HPAI,"domestic, chicken",,,5,,,,0,,
224230,OIE,43.67,-0.72,Europe,France,Aquitaine,Bergouey,Exact,2/16/2017,2/24/2017,Confirmed,Influenza - Avian,H5N8 HPAI,"domestic, duck",0,0,0,0,0,,,,
224191,OIE,43.67,-0.72,Europe,France,Aquitaine,Bergouey,Exact,2/14/2017,2/24/2017,Confirmed,Influenza - Avian,H5N8 HPAI,"domestic, duck",0,0,0,0,0,,,,
225049,OIE,43.67,-0.72,Europe,France,Aquitaine,Bergouey,Exact,2/13/2017,3/10/2017,Confirmed,Influenza - Avian,H5N8 HPAI,"domestic, duck",0,0,0,0,0,,,,
209902,OIE,43.67,-0.72,Europe,France,Aquitaine,Bergouey,Exact,12/14/2015,1/22/2016,Confirmed,Influenza - Avian,H5N3 LPAI,"domestic, duck",3800,0,0,3000,800,,,,
209296,OIE,43.67,-0.72,Europe,France,Aquitaine,Bergouey,Exact,12/9/2015,12/15/2015,Confirmed,Influenza - Avian,H5N9 HPAI,"domestic, duck",500,0,0,0,0,,,,
219260,OIE,51.95,4.48,Europe,Netherlands,Zuid-Holland,Bergplas,Unknown,11/14/2016,11/18/2016,Confirmed,Influenza - Avian,H5N8 HPAI,"wild, tufted duck",,1,1,0,0,,,,
224761,OIE,49.54,8.56,Europe,Germany,Hessen,Bergstraaye,Unknown,2/20/2017,2/28/2017,Confirmed,Influenza - Avian,H5N8 HPAI,"wild, grey heron",,1,1,0,0,,,,
226718,National authorities,30.81,30.93,Africa,Egypt,Gharbia,Berma,Centroid Admin2,4/6/2017,4/8/2017,Confirmed,Influenza - Avian,H5N1 HPAI,"domestic, duck",,2000,,2000,,,,,
226717,National authorities,30.81,30.93,Africa,Egypt,Gharbia,Berma,Centroid Admin2,4/6/2017,4/8/2017,Confirmed,Influenza - Avian,H5N1 HPAI,"domestic, duck",,4000,,4000,,,,,
213343,National authorities,30.81,30.93,Africa,Egypt,Gharbia,Berma,Centroid Admin2,6/2/2016,6/3/2016,Confirmed,Influenza - Avian,H5N1 HPAI,"domestic, duck",,6000,,6000,,,,,
223039,OIE,43.35,0.32,Europe,France,Midi-Pyrenees,Bernadets Debat,Exact,1/20/2017,1/27/2017,Confirmed,Influenza - Avian,H5N8 HPAI,"domestic, chicken",8800,0,0,8800,0,,,,
224411,OIE,50.64,15.99,Europe,Czech Republic,Vychodocesky,Bernartice,Exact,2/23/2017,2/27/2017,Confirmed,Influenza - Avian,H5N8 HPAI,"domestic, unspecified bird",20,6,6,14,0,,,,
224410,OIE,50.64,15.99,Europe,Czech Republic,Vychodocesky,Bernartice,Exact,2/23/2017,2/27/2017,Confirmed,Influenza - Avian,H5N8 HPAI,"domestic, chicken",8,5,5,3,0,,,,
224345,OIE,50.64,15.99,Europe,Czech Republic,Vychodocesky,Bernartice,Exact,2/23/2017,2/27/2017,Confirmed,Influenza - Avian,H5N8 HPAI,"domestic, chicken",20,6,6,14,0,,0,,
224344,OIE,50.64,15.99,Europe,Czech Republic,Vychodocesky,Bernartice,Exact,2/23/2017,2/27/2017,Confirmed,Influenza - Avian,H5N8 HPAI,"domestic, chicken",8,5,5,3,0,,0,,
220928,OIE,43.67,-0.22,Europe,France,Midi-Pyrenees,Bernede,Exact,12/19/2016,12/20/2016,Confirmed,Influenza - Avian,H5N8 HPAI,"domestic, duck",1144,0,0,0,0,,,,
223983,OIE,48.20,17.32,Europe,Slovakia,Bratislava,Bernolakovo,Unknown,2/7/2017,2/13/2017,Confirmed,Influenza - Avian,H5N8 HPAI,"wild, mallard",,1,1,0,0,,,,
224063,OIE,51.37,14.06,Europe,Germany,Sachsen,Bernsdorf,Exact,2/6/2017,2/10/2017,Confirmed,Influenza - Avian,H5N8 HPAI,"wild, swan",3,1,1,2,0,,,,
224502,OIE,46.19,17.12,Europe,Hungary,Somogy,Berzence,Exact,1/13/2017,2/28/2017,Confirmed,Influenza - Avian,H5N8 HPAI,"wild,mute swan (cygnus olor))",,1,1,0,0,,,,
224561,OIE,41.97,2.68,Europe,Spain,Catalua±A/Catalunya,Bescano,Exact,2/18/2017,3/3/2017,Confirmed,Influenza - Avian,H5N8 HPAI,"domestic, unspecified bird",450,4,0,450,0,,0,,
224005,OIE,32.35,34.93,Asia,Israel,Central District,Bet Halewi,Unknown,1/28/2017,2/16/2017,Confirmed,Influenza - Avian,H5N8 HPAI,"domestic, duck",1260,,15,1245,0,,,,
224008,OIE,32.38,34.87,Asia,Israel,Central District,Bet Herut,Unknown,2/12/2017,2/16/2017,Confirmed,Influenza - Avian,H5N8 HPAI,"domestic, turkey",3000,,500,2500,0,,,,
228340,OIE,43.55,23.20,Europe,Bulgaria,Montana,Bezdenitsa,Exact,3/27/2017,6/5/2017,Confirmed,Influenza - Avian,H5N8 HPAI,"domestic, unspecified bird",56,27,27,29,0,,,,
225909,National authorities,43.55,23.20,Europe,Bulgaria,Montana,Bezdenitsa ,Exact,3/21/2017,4/3/2017,Confirmed,Influenza - Avian,H5N8 HPAI,"domestic, unspecified bird",56,27,,,,,0,,
221926,OIE,43.39,0.61,Europe,France,Midi-Pyrenees,Bezues Bajou,Exact,12/22/2016,1/9/2017,Confirmed,Influenza - Avian,H5N8 HPAI,"domestic, duck",90,0,0,90,0,,,,
220828,OIE,52.65,15.25,Europe,Poland,Lubuskie,Bialoblocie,Exact,12/13/2016,12/16/2016,Confirmed,Influenza - Avian,H5N8 HPAI,"domestic, unspecified bird",1000,329,329,671,0,,,,
225477,OIE,43.48,-1.14,Europe,France,Aquitaine,Bidache,Exact,3/6/2017,3/17/2017,Confirmed,Influenza - Avian,H5N8 HPAI,"domestic, unspecified env. sample",166,,27,139,,,,,
220107,OIE,52.46,5.76,Europe,Netherlands,Flevoland,Biddinghuizen,Exact,12/1/2016,12/5/2016,Confirmed,Influenza - Avian,H5N8 HPAI,"domestic, duck",15421,100,100,15321,0,,,,
220106,OIE,52.46,5.76,Europe,Netherlands,Flevoland,Biddinghuizen,Exact,11/30/2016,12/5/2016,Confirmed,Influenza - Avian,H5N8 HPAI,"domestic, duck",8409,400,400,8009,0,,,,
219575,National authorities,52.46,5.76,Europe,Netherlands,Flevoland,Biddinghuizen,Unknown,11/25/2016,11/26/2016,Confirmed,Influenza - Avian,H5N8 HPAI,"domestic, duck",13675,,500,13675,,,0,,
223158,OIE,50.68,16.60,Europe,Poland,Dolnoslaskie,Bielawa,Exact,1/20/2017,2/1/2017,Confirmed,Influenza - Avian,H5N8 HPAI,"wild,mute swan (cygnus olor))",,1,1,0,0,,,,
224056,OIE,52.04,8.52,Europe,Germany,Nordrhein-Westfalen,Bielefeld,Exact,2/3/2017,2/10/2017,Confirmed,Influenza - Avian,H5N8 HPAI,"wild, goose",,7,7,0,0,,,,
222744,OIE,52.04,8.52,Europe,Germany,Nordrhein-Westfalen,Bielefeld,Unknown,12/22/2016,1/24/2017,Confirmed,Influenza - Avian,H5N3 LPAI,"domestic, unspecified bird",89,12,0,0,0,,,,
220132,OIE,47.07,7.19,Europe,Switzerland,Bern,Bielersee,Exact,11/28/2016,12/7/2016,Confirmed,Influenza - Avian,H5N8 HPAI,"wild,mute swan (cygnus olor))",,1,1,0,0,,,,
219444,OIE,47.07,7.19,Europe,Switzerland,Bern,Bielersee,Exact,11/17/2016,11/22/2016,Confirmed,Influenza - Avian,H5N8 HPAI,"wild, unspecified bird",,1,1,0,0,,,,
219428,OIE,47.07,7.19,Europe,Switzerland,Bern,Bielersee,Exact,11/14/2016,11/22/2016,Confirmed,Influenza - Avian,H5N8 HPAI,"wild, herring gull",,1,1,0,0,,,,
219427,OIE,47.07,7.19,Europe,Switzerland,Bern,Bielersee,Exact,11/14/2016,11/22/2016,Confirmed,Influenza - Avian,H5N8 HPAI,"wild, gull",,1,1,0,0,,,,
219128,OIE,47.07,7.19,Europe,Switzerland,Bern,Bielersee,Exact,11/13/2016,11/16/2016,Confirmed,Influenza - Avian,H5N8 HPAI,"wild, gull",,1,1,0,0,,,,
219118,OIE,47.07,7.19,Europe,Switzerland,Bern,Bielersee,Exact,11/13/2016,11/16/2016,Confirmed,Influenza - Avian,H5N8 HPAI,"wild, tufted duck",,1,1,0,0,,,,
222811,OIE,51.41,17.86,Europe,Poland,Wielkopolskie,Bierzow,Exact,1/16/2017,1/18/2017,Confirmed,Influenza - Avian,H5N8 HPAI,"domestic, unspecified bird",3859,1652,1652,2207,0,,,,
221653,OIE,46.96,21.59,Europe,Hungary,Bekes,Biharugra,Unknown,12/12/2016,12/29/2016,Confirmed,Influenza - Avian,H5N8 HPAI,"domestic, duck",6906,0,0,0,0,,,,
220430,OIE,46.96,21.59,Europe,Hungary,Bekes,Biharugra,Exact,12/1/2016,12/13/2016,Confirmed,Influenza - Avian,H5N8 HPAI,"domestic, duck",15000,0,0,0,0,,,,
221654,OIE,46.96,21.59,Europe,Hungary,Bekes,Biharugra,Unknown,12/12/2016,12/29/2016,Confirmed,Influenza - Avian,H5N8 HPAI,"domestic, duck",8500,0,0,0,0,,,,
228772,National authorities,27.09,105.02,Asia,China,Guizhou Sheng,Bijie,Centroid Admin2,,7/4/2017,Confirmed,Influenza - Avian,H7N9 LPAI,,,,,,,Male,45,1,
228529,National authorities,27.09,105.02,Asia,China,Guizhou Sheng,Bijie,Centroid Admin2,,6/16/2017,Confirmed,Influenza - Avian,H7N9 LPAI,,,,,,,Male,68,1,
210364,OIE,5.35,-3.90,Africa,Ca´Te D'Ivoire,District Autonome De Abidjan,Bingerville,Exact,1/12/2016,2/2/2016,Confirmed,Influenza - Avian,H5N1 HPAI,"domestic, chicken",1150,150,100,0,150,,,,
207679,OIE,22.36,103.64,Asia,Viet Nam,Lai Chau,"Binh Lu, Binh Lu",Exact,9/29/2015,9/30/2015,Confirmed,Influenza - Avian,H5N6 HPAI,"domestic, chicken",1005,801,801,204,0,,,,
227914,National authorities,37.39,118.02,Asia,China,Shandong Sheng,Binzhou,Unknown,5/7/2017,5/20/2017,Confirmed,Influenza - Avian,H7N9 LPAI,,,,,,,,,1,
208746,EC,45.29,0.64,Europe,France,Aquitaine,Biras,Exact,11/14/2015,11/24/2015,Confirmed,Influenza - Avian,H5N1 HPAI,"domestic, chicken",32,22,22,10,0,,,,
